{
  "0": {
    "position": {
      "lat": 52.38972,
      "lng": 4.875
    },
    "title": "DE WERELD DRAAIT BUITEN",
    "city": "Amsterdam",
    "country": "",
    "region": "Netherlands",
    "type": "venue",
    "market": "",
    "category": "Festival Sites",
    "capacity": "",
    "lnIntrest": "",
    "symbol": "WDB",
    "links": [
      {
        "text": "",
        "href": "",
        "$$hashKey": "0VB"
      }
    ],
    "pictures": [
      "/Content/img/Map/Locations/festival-sites/wdb.jpg"
    ],
    "url": "",
    "address": "Zaanstraat 204, 1013 RW Amsterdam, Netherlands",
    "phone": "",
    "$$hashKey": "0BG"
  },
  "1": {
    "position": {
      "lat": 51.54327,
      "lng": -0.012479999999982283
    },
    "title": "Hard Rock Calling Festival (Festival Name Is Changing, TBD)",
    "city": "London",
    "country": "",
    "region": "England",
    "type": "venue",
    "market": "",
    "category": "Festival Sites",
    "capacity": "",
    "lnIntrest": "",
    "symbol": "HRC",
    "links": [
      {
        "text": "",
        "href": "",
        "$$hashKey": "0V8"
      }
    ],
    "pictures": [
      "/Content/img/Map/Locations/festival-sites/hrc.jpg"
    ],
    "url": "",
    "address": "Westfield Avenue, London E15 2DU, UK",
    "phone": "",
    "$$hashKey": "0BE"
  },
  "2": {
    "position": {
      "lat": 53.86807,
      "lng": -1.381840000000011
    },
    "title": "LEEDS Festival",
    "city": "Leeds",
    "country": "",
    "region": "England",
    "type": "venue",
    "market": "",
    "category": "Festival Sites",
    "capacity": "",
    "lnIntrest": "",
    "symbol": "LEF",
    "links": [
      {
        "text": "",
        "href": "",
        "$$hashKey": "0V5"
      }
    ],
    "pictures": [
      "/Content/img/Map/Locations/festival-sites/lef.jpg"
    ],
    "url": "",
    "address": "South Approach, West Yorkshire, UK",
    "phone": "",
    "$$hashKey": "0BC"
  },
  "3": {
    "position": {
      "lat": 40.43695,
      "lng": -3.724739999999997
    },
    "title": "DCODE FEST",
    "city": "Madrid",
    "country": "",
    "region": "Spain",
    "type": "venue",
    "market": "",
    "category": "Festival Sites",
    "capacity": "",
    "lnIntrest": "",
    "symbol": "DCF",
    "links": [
      {
        "text": "",
        "href": "",
        "$$hashKey": "0V2"
      }
    ],
    "pictures": [
      "/Content/img/Map/Locations/festival-sites/dcf.jpg"
    ],
    "url": "",
    "address": "Avenida Séneca, 2, 28040 Madrid, Madrid, Spain",
    "phone": "",
    "$$hashKey": "0BA"
  },
  "4": {
    "position": {
      "lat": 41.47278,
      "lng": -88.06064000000003
    },
    "title": "EDC Chicago",
    "city": "Chicago",
    "country": "",
    "region": "Illinois",
    "type": "venue",
    "market": "",
    "category": "Festival Sites",
    "capacity": "",
    "lnIntrest": "",
    "symbol": "EDC",
    "links": [
      {
        "text": "",
        "href": "",
        "$$hashKey": "0UZ"
      }
    ],
    "pictures": [
      "/Content/img/Map/Locations/festival-sites/edc.jpg"
    ],
    "url": "",
    "address": "500 Speedway Boulevard, Elwood, IL 60421, USA",
    "phone": "",
    "$$hashKey": "0B8"
  },
  "5": {
    "position": {
      "lat": 51.24245,
      "lng": -0.5673799999999574
    },
    "title": "Magic Summer Live",
    "city": "Surrey",
    "country": "",
    "region": "England",
    "type": "venue",
    "market": "",
    "category": "Festival Sites",
    "capacity": "",
    "lnIntrest": "",
    "symbol": "MSL",
    "links": [
      {
        "text": "",
        "href": "",
        "$$hashKey": "0UW"
      }
    ],
    "pictures": [
      "/Content/img/Map/Locations/festival-sites/msl.jpg"
    ],
    "url": "",
    "address": "7 Nightingale Road, Guildford, Surrey GU1, UK",
    "phone": "",
    "$$hashKey": "0B6"
  },
  "6": {
    "position": {
      "lat": 50.88209,
      "lng": 6.02021000000002
    },
    "title": "PINKPOP",
    "city": "Landgraff",
    "country": "",
    "region": "Netherlands",
    "type": "venue",
    "market": "",
    "category": "Festival Sites",
    "capacity": "",
    "lnIntrest": "",
    "symbol": "PKP",
    "links": [
      {
        "text": "",
        "href": "",
        "$$hashKey": "0UT"
      }
    ],
    "pictures": [
      "/Content/img/Map/Locations/festival-sites/pkp.jpg"
    ],
    "url": "",
    "address": "Hofstraat 11, 6372 XC Landgraaf, Netherlands",
    "phone": "",
    "$$hashKey": "0B4"
  },
  "7": {
    "position": {
      "lat": 35.89487,
      "lng": 139.63078300000006
    },
    "title": "Loud Park",
    "city": "Saitama ",
    "country": "",
    "region": "Japan",
    "type": "venue",
    "market": "",
    "category": "Festival Sites",
    "capacity": "",
    "lnIntrest": "",
    "symbol": "LOP",
    "links": [
      {
        "text": "",
        "href": "",
        "$$hashKey": "0UQ"
      }
    ],
    "pictures": [
      "/Content/img/Map/Locations/festival-sites/lop.jpg"
    ],
    "url": "",
    "address": "8 Shintoshin, Chuo-ku, Saitama-shi, Saitama-ken 330-0081, Japan",
    "phone": "",
    "$$hashKey": "0B2"
  },
  "8": {
    "position": {
      "lat": 60.17368,
      "lng": 24.90476000000001
    },
    "title": "Rock The Beach",
    "city": "Helsinki",
    "country": "",
    "region": "Finland",
    "type": "venue",
    "market": "",
    "category": "Festival Sites",
    "capacity": "",
    "lnIntrest": "",
    "symbol": "RTB",
    "links": [
      {
        "text": "",
        "href": "",
        "$$hashKey": "0UN"
      }
    ],
    "pictures": [
      "/Content/img/Map/Locations/festival-sites/rtb.jpg"
    ],
    "url": "",
    "address": "Sandstrandsvägen, 00100 Helsingfors, Finland",
    "phone": "",
    "$$hashKey": "0B0"
  },
  "9": {
    "position": {
      "lat": 43.57397,
      "lng": 3.947279999999978
    },
    "title": "I Love (Heart) Techno FRANCE",
    "city": "Montpellier ",
    "country": "",
    "region": "France",
    "type": "venue",
    "market": "",
    "category": "Festival Sites",
    "capacity": "",
    "lnIntrest": "",
    "symbol": "LTF",
    "links": [
      {
        "text": "",
        "href": "",
        "$$hashKey": "0UK"
      }
    ],
    "pictures": [
      "/Content/img/Map/Locations/festival-sites/lft.jpg"
    ],
    "url": "",
    "address": "Route de la Foire, 34470 Pérols, France",
    "phone": "",
    "$$hashKey": "0AY"
  },
  "10": {
    "position": {
      "lat": 33.78473,
      "lng": -84.38220999999999
    },
    "title": "Music Midtown - Atlanta's Music Festival",
    "city": "Atlanta",
    "country": "",
    "region": "Georgia",
    "type": "venue",
    "market": "",
    "category": "Festival Sites",
    "capacity": "",
    "lnIntrest": "",
    "symbol": "MMA",
    "links": [
      {
        "text": "",
        "href": "",
        "$$hashKey": "0UH"
      }
    ],
    "pictures": [
      "/Content/img/Map/Locations/festival-sites/mma.jpg"
    ],
    "url": "",
    "address": "1105-1129 Juniper Street Northeast, Atlanta, GA 30309, USA",
    "phone": "",
    "$$hashKey": "0AW"
  },
  "11": {
    "position": {
      "lat": 39.9602,
      "lng": -75.17413999999997
    },
    "title": "Made In America Festival",
    "city": "Philadelphia",
    "country": "",
    "region": "Pennsylvania",
    "type": "venue",
    "market": "",
    "category": "Festival Sites",
    "capacity": "",
    "lnIntrest": "",
    "symbol": "MAF",
    "links": [
      {
        "text": "",
        "href": "",
        "$$hashKey": "0UE"
      }
    ],
    "pictures": [
      "/Content/img/Map/Locations/festival-sites/maf.jpg"
    ],
    "url": "",
    "address": "2126 Benjamin Franklin Parkway, Philadelphia, PA 19130, USA",
    "phone": "",
    "$$hashKey": "0AU"
  },
  "12": {
    "position": {
      "lat": 52.82833,
      "lng": -1.3724700000000212
    },
    "title": "Download Festival",
    "city": "Leicestershire",
    "country": "",
    "region": "England",
    "type": "venue",
    "market": "",
    "category": "Festival Sites",
    "capacity": "",
    "lnIntrest": "",
    "symbol": "DWF",
    "links": [
      {
        "text": "",
        "href": "",
        "$$hashKey": "0UB"
      }
    ],
    "pictures": [
      "/Content/img/Map/Locations/festival-sites/dwf.jpg"
    ],
    "url": "",
    "address": "Unnamed Road, Derby, Leicestershire DE74 2RP, UK",
    "phone": "",
    "$$hashKey": "0AS"
  },
  "13": {
    "position": {
      "lat": 52.4396,
      "lng": 5.768220000000042
    },
    "title": "A Campingflight To Lowlands Paradise",
    "city": "Biddinghuizen",
    "country": "",
    "region": "Netherlands",
    "type": "venue",
    "market": "",
    "category": "Festival Sites",
    "capacity": "",
    "lnIntrest": "",
    "symbol": "CLP",
    "links": [
      {
        "text": "",
        "href": "",
        "$$hashKey": "0U8"
      }
    ],
    "pictures": [
      "/Content/img/Map/Locations/festival-sites/clp.jpg"
    ],
    "url": "",
    "address": "Spijkweg 30, 8256 RJ Biddinghuizen, Netherlands",
    "phone": "",
    "$$hashKey": "0AQ"
  },
  "14": {
    "position": {
      "lat": 51.50174,
      "lng": -0.17456000000004224
    },
    "title": "Blues Fest London",
    "city": "London",
    "country": "",
    "region": "England",
    "type": "venue",
    "market": "",
    "category": "Festival Sites",
    "capacity": "",
    "lnIntrest": "",
    "symbol": "BFL",
    "links": [
      {
        "text": "",
        "href": "",
        "$$hashKey": "0U5"
      }
    ],
    "pictures": [
      "/Content/img/Map/Locations/festival-sites/bfl.jpg"
    ],
    "url": "",
    "address": "45 Kensington Road, London SW7 2AW, UK",
    "phone": "",
    "$$hashKey": "0AO"
  },
  "15": {
    "position": {
      "lat": 34.09831,
      "lng": -118.32427999999999
    },
    "title": "BASSRUSH",
    "city": "Hollywood",
    "country": "",
    "region": "California",
    "type": "venue",
    "market": "",
    "category": "Festival Sites",
    "capacity": "",
    "lnIntrest": "",
    "symbol": "BSR",
    "links": [
      {
        "text": "",
        "href": "",
        "$$hashKey": "0U2"
      }
    ],
    "pictures": [
      "/Content/img/Map/Locations/festival-sites/bsr.jpg"
    ],
    "url": "",
    "address": "6215 Sunset Boulevard, Los Angeles, CA 90028, USA",
    "phone": "",
    "$$hashKey": "0AM"
  },
  "16": {
    "position": {
      "lat": 27.99008,
      "lng": -82.36248
    },
    "title": "FUNSHINE Music Festival ",
    "city": "Tampa",
    "country": "",
    "region": "Florida",
    "type": "venue",
    "market": "",
    "category": "Festival Sites",
    "capacity": "",
    "lnIntrest": "",
    "symbol": "FMF",
    "links": [
      {
        "text": "",
        "href": "",
        "$$hashKey": "0TZ"
      }
    ],
    "pictures": [
      "/Content/img/Map/Locations/festival-sites/fmf.jpg"
    ],
    "url": "",
    "address": "Florida State Fairgrounds, 4800 U.S. 301, Tampa, FL 33610, USA",
    "phone": "",
    "$$hashKey": "0AK"
  },
  "17": {
    "position": {
      "lat": 37.51409,
      "lng": 127.07495100000006
    },
    "title": "CityBreak",
    "city": "Seoul",
    "country": "",
    "region": "South Korea",
    "type": "venue",
    "market": "",
    "category": "Festival Sites",
    "capacity": "",
    "lnIntrest": "",
    "symbol": "CIB",
    "links": [
      {
        "text": "",
        "href": "",
        "$$hashKey": "0TW"
      }
    ],
    "pictures": [
      "/Content/img/Map/Locations/festival-sites/cib.jpg"
    ],
    "url": "",
    "address": "25 Olympic-ro, Songpa-gu, Seoul, South Korea",
    "phone": "",
    "$$hashKey": "0AI"
  },
  "18": {
    "position": {
      "lat": 33.74751,
      "lng": -117.865791
    },
    "title": "Basscon Massive",
    "city": "Santa Ana",
    "country": "",
    "region": "California",
    "type": "venue",
    "market": "",
    "category": "Festival Sites",
    "capacity": "",
    "lnIntrest": "",
    "symbol": "BSM",
    "links": [
      {
        "text": "",
        "href": "",
        "$$hashKey": "0TT"
      }
    ],
    "pictures": [
      "/Content/img/Map/Locations/festival-sites/bsm.jpg"
    ],
    "url": "",
    "address": "301 North Spurgeon Street, Santa Ana, CA 92701, USA",
    "phone": "",
    "$$hashKey": "0AG"
  },
  "19": {
    "position": {
      "lat": 47.09572,
      "lng": -119.98265800000001
    },
    "title": "Pain In The Grass",
    "city": "George",
    "country": "",
    "region": "Washington",
    "type": "venue",
    "market": "",
    "category": "Festival Sites",
    "capacity": "",
    "lnIntrest": "",
    "symbol": "PTG",
    "links": [
      {
        "text": "",
        "href": "",
        "$$hashKey": "0TQ"
      }
    ],
    "pictures": [
      "/Content/img/Map/Locations/festival-sites/ptg.jpg"
    ],
    "url": "",
    "address": "456-900 Silica Road Northwest, Quincy, WA 98848, USA",
    "phone": "",
    "$$hashKey": "0AE"
  },
  "20": {
    "position": {
      "lat": 42.33875,
      "lng": -83.04849000000002
    },
    "title": "Downtown Hoedown",
    "city": "Detroit",
    "country": "",
    "region": "Michigan",
    "type": "venue",
    "market": "",
    "category": "Festival Sites",
    "capacity": "",
    "lnIntrest": "",
    "symbol": "DOH",
    "links": [
      {
        "text": "",
        "href": "",
        "$$hashKey": "0TN"
      }
    ],
    "pictures": [
      "/Content/img/Map/Locations/festival-sites/doh.jpg"
    ],
    "url": "",
    "address": "1600 Woodward Avenue, Detroit, MI 48226, USA",
    "phone": "",
    "$$hashKey": "0AC"
  },
  "21": {
    "position": {
      "lat": 52.4504,
      "lng": 1.5694100000000617
    },
    "title": "Latitude Festival",
    "city": "Beccles",
    "country": "",
    "region": "England",
    "type": "venue",
    "market": "",
    "category": "Festival Sites",
    "capacity": "",
    "lnIntrest": "",
    "symbol": "LAF",
    "links": [
      {
        "text": "",
        "href": "",
        "$$hashKey": "0TK"
      }
    ],
    "pictures": [
      "/Content/img/Map/Locations/festival-sites/laf.jpg"
    ],
    "url": "",
    "address": "2 Merrylees, Beccles, Suffolk NR34 9JB, UK",
    "phone": "",
    "$$hashKey": "0AA"
  },
  "22": {
    "position": {
      "lat": 36.26985,
      "lng": -115.011551
    },
    "title": "EDC LasVegas",
    "city": "Las Vegas",
    "country": "",
    "region": "Nevada",
    "type": "venue",
    "market": "",
    "category": "Festival Sites",
    "capacity": "",
    "lnIntrest": "",
    "symbol": "ELV",
    "links": [
      {
        "text": "",
        "href": "",
        "$$hashKey": "0TH"
      }
    ],
    "pictures": [
      "/Content/img/Map/Locations/festival-sites/elv.jpg"
    ],
    "url": "http://www.lvms.com/",
    "address": "7000 North Las Vegas Boulevard, Las Vegas, NV 89115, United States",
    "phone": "+1 702-644-4444",
    "$$hashKey": "0A8"
  },
  "23": {
    "position": {
      "lat": 43.62932,
      "lng": -79.41503
    },
    "title": "Beruna Music Festival",
    "city": "Toronto",
    "country": "",
    "region": "Ontario",
    "type": "venue",
    "market": "",
    "category": "Festival Sites",
    "capacity": "",
    "lnIntrest": "",
    "symbol": "BMF",
    "links": [
      {
        "text": "",
        "href": "",
        "$$hashKey": "0TE"
      }
    ],
    "pictures": [
      "/Content/img/Map/Locations/festival-sites/bmf.jpg"
    ],
    "url": "",
    "address": "909 Lake Shore Boulevard West, Toronto, ON M6K 3L3, Canada",
    "phone": "",
    "$$hashKey": "0A6"
  },
  "24": {
    "position": {
      "lat": 50.97259,
      "lng": 4.716949999999997
    },
    "title": "Werchter Boutique",
    "city": "Werchter",
    "country": "",
    "region": "Belgium",
    "type": "venue",
    "market": "",
    "category": "Festival Sites",
    "capacity": "",
    "lnIntrest": "",
    "symbol": "WEB",
    "links": [
      {
        "text": "",
        "href": "",
        "$$hashKey": "0TB"
      }
    ],
    "pictures": [
      "/Content/img/Map/Locations/festival-sites/web.jpg"
    ],
    "url": "",
    "address": "Hoogland 79-103, 3118 Rotselaar, Belgium",
    "phone": "",
    "$$hashKey": "0A4"
  },
  "25": {
    "position": {
      "lat": 42.06802,
      "lng": -84.24281000000002
    },
    "title": "Faster Horses",
    "city": "Brooklyn",
    "country": "",
    "region": "Michigan",
    "type": "venue",
    "market": "",
    "category": "Festival Sites",
    "capacity": "",
    "lnIntrest": "",
    "symbol": "FAH",
    "links": [
      {
        "text": "",
        "href": "",
        "$$hashKey": "0T8"
      }
    ],
    "pictures": [
      "/Content/img/Map/Locations/festival-sites/fah.jpg"
    ],
    "url": "",
    "address": "12626 U.S. 12, Brooklyn, MI 49230, USA",
    "phone": "",
    "$$hashKey": "0A2"
  },
  "26": {
    "position": {
      "lat": 34.08965,
      "lng": -117.29382299999997
    },
    "title": "Escape From Wonderland",
    "city": "San Bernardino",
    "country": "",
    "region": "California",
    "type": "venue",
    "market": "",
    "category": "Festival Sites",
    "capacity": "",
    "lnIntrest": "",
    "symbol": "EFW",
    "links": [
      {
        "text": "",
        "href": "",
        "$$hashKey": "0T5"
      }
    ],
    "pictures": [
      "/Content/img/Map/Locations/festival-sites/efw.jpg"
    ],
    "url": "",
    "address": "689 South E Street, San Bernardino, CA 92408, USA",
    "phone": "",
    "$$hashKey": "0A0"
  },
  "27": {
    "position": {
      "lat": 40.75627,
      "lng": -73.84631999999999
    },
    "title": "EDC New York",
    "city": "Flushing",
    "country": "",
    "region": "New York",
    "type": "venue",
    "market": "",
    "category": "Festival Sites",
    "capacity": "",
    "lnIntrest": "",
    "symbol": "ENY",
    "links": [
      {
        "text": "",
        "href": "",
        "$$hashKey": "0T2"
      }
    ],
    "pictures": [
      "/Content/img/Map/Locations/festival-sites/eny.jpg"
    ],
    "url": "",
    "address": "126-01 Roosevelt Avenue, Corona, NY 11368, USA",
    "phone": "",
    "$$hashKey": "09Y"
  },
  "28": {
    "position": {
      "lat": 51.02455,
      "lng": 3.692869999999971
    },
    "title": "I Love (Heart) Techno",
    "city": "Ghent",
    "country": "",
    "region": "Belgium",
    "type": "venue",
    "market": "",
    "category": "Festival Sites",
    "capacity": "",
    "lnIntrest": "",
    "symbol": "ILT",
    "links": [
      {
        "text": "",
        "href": "",
        "$$hashKey": "0SZ"
      }
    ],
    "pictures": [
      "/Content/img/Map/Locations/festival-sites/ilt.jpg"
    ],
    "url": "",
    "address": "Sint-Denijs-Westrem Flanders Expo, 9051 Gent, Belgium",
    "phone": "",
    "$$hashKey": "09W"
  },
  "29": {
    "position": {
      "lat": 18.08426,
      "lng": 59.32580000000007
    },
    "title": "Stockholm Music & Arts",
    "city": "Stockholm",
    "country": "",
    "region": "Sweden",
    "type": "venue",
    "market": "",
    "category": "Festival Sites",
    "capacity": "",
    "lnIntrest": "",
    "symbol": "SMA",
    "links": [
      {
        "text": "",
        "href": "",
        "$$hashKey": "0SW"
      }
    ],
    "pictures": [
      "/Content/img/Map/Locations/festival-sites/sma.jpg"
    ],
    "address": "Södra Brobänken 41A, 111 49 Stockholm, Sweden",
    "phone": "+46 70 648 08 88",
    "$$hashKey": "09U"
  },
  "30": {
    "position": {
      "lat": 34.20441,
      "lng": -117.40229999999997
    },
    "title": "Nocturnal Wonderland",
    "city": "San Bernardino",
    "country": "",
    "region": "California",
    "type": "venue",
    "market": "",
    "category": "Festival Sites",
    "capacity": "",
    "lnIntrest": "",
    "symbol": "NCW",
    "links": [
      {
        "text": "",
        "href": "",
        "$$hashKey": "0ST"
      }
    ],
    "pictures": [
      "/Content/img/Map/Locations/festival-sites/ncw.jpg"
    ],
    "url": "",
    "address": "2575 Glen Helen Parkway, Devore Heights, CA 92407, USA",
    "phone": "",
    "$$hashKey": "09S"
  },
  "31": {
    "position": {
      "lat": 50.96996,
      "lng": 4.684960000000046
    },
    "title": "TW Classic",
    "city": "Werchter",
    "country": "",
    "region": "Belgium",
    "type": "venue",
    "market": "",
    "category": "Festival Sites",
    "capacity": "",
    "lnIntrest": "",
    "symbol": "TWC",
    "links": [
      {
        "text": "",
        "href": "",
        "$$hashKey": "0SQ"
      }
    ],
    "pictures": [
      "/Content/img/Map/Locations/festival-sites/twc.jpg"
    ],
    "url": "",
    "address": "Haachtsesteenweg 21, 3118 Rotselaar, Belgium",
    "phone": "",
    "$$hashKey": "09Q"
  },
  "32": {
    "position": {
      "lat": 59.3048859,
      "lng": 18.074548700000037
    },
    "title": "Popaganda",
    "city": "Stockholm",
    "country": "",
    "region": "Sweden",
    "type": "venue",
    "market": "",
    "category": "Festival Sites",
    "capacity": "",
    "lnIntrest": "",
    "symbol": "POG",
    "links": [
      {
        "text": "",
        "href": "",
        "$$hashKey": "0SN"
      }
    ],
    "pictures": [
      "/Content/img/Map/Locations/festival-sites/pog.jpg"
    ],
    "url": "",
    "address": "Hammarby SlussvÃ¤g 20, 118 60 Stockholm, Sweden",
    "phone": "",
    "$$hashKey": "09O"
  },
  "33": {
    "position": {
      "lat": 37.08297,
      "lng": -113.60678899999999
    },
    "title": "Watershed Festival",
    "city": "George",
    "country": "",
    "region": "Washington",
    "type": "venue",
    "market": "",
    "category": "Festival Sites",
    "capacity": "",
    "lnIntrest": "",
    "symbol": "WAF",
    "links": [
      {
        "text": "",
        "href": "",
        "$$hashKey": "0SK"
      }
    ],
    "pictures": [
      "/Content/img/Map/Locations/festival-sites/waf.jpg"
    ],
    "url": "",
    "address": "1492 South Silicon Way, Saint George, UT 84770, USA",
    "phone": "",
    "$$hashKey": "09M"
  },
  "34": {
    "position": {
      "lat": 51.64226,
      "lng": 0.12342999999998483
    },
    "title": "Reading Festival",
    "city": "Reading",
    "country": "",
    "region": "England",
    "type": "venue",
    "market": "",
    "category": "Festival Sites",
    "capacity": "",
    "lnIntrest": "",
    "symbol": "REF",
    "links": [
      {
        "text": "",
        "href": "",
        "$$hashKey": "0SH"
      }
    ],
    "pictures": [
      "/Content/img/Map/Locations/festival-sites/ref.jpg"
    ],
    "url": "",
    "address": "58-82 Hoe Lane, Abridge, Romford, Essex RM4 1AU, UK",
    "phone": "",
    "$$hashKey": "09K"
  },
  "35": {
    "position": {
      "lat": 33.80239,
      "lng": -117.91979200000003
    },
    "title": "White Wonderland",
    "city": "Anaheim",
    "country": "",
    "region": "California",
    "type": "venue",
    "market": "",
    "category": "Festival Sites",
    "capacity": "",
    "lnIntrest": "",
    "symbol": "WHW",
    "links": [
      {
        "text": "",
        "href": "",
        "$$hashKey": "0SE"
      }
    ],
    "pictures": [
      "/Content/img/Map/Locations/festival-sites/whw.jpg"
    ],
    "url": "",
    "address": "800 West Katella Avenue, Anaheim, CA 92802, USA",
    "phone": "",
    "$$hashKey": "09I"
  },
  "36": {
    "position": {
      "lat": 18.4515228,
      "lng": -66.06948
    },
    "title": "EDC Puerto Rico",
    "city": "San Juan",
    "country": "",
    "region": "Puerto Rico",
    "type": "venue",
    "market": "",
    "category": "Festival Sites",
    "capacity": "",
    "lnIntrest": "",
    "symbol": "EPR",
    "links": [
      {
        "text": "",
        "href": "",
        "$$hashKey": "0SB"
      }
    ],
    "pictures": [
      "/Content/img/Map/Locations/festival-sites/epr.jpg"
    ],
    "url": "",
    "address": "Puerto Rico 26, San Juan, San Juan 00907, Puerto Rico",
    "phone": "",
    "$$hashKey": "09G"
  },
  "37": {
    "position": {
      "lat": 40.06758,
      "lng": -81.01445000000001
    },
    "title": "Jamboree In The Hills",
    "city": "Belmont",
    "country": "",
    "region": "Ohio",
    "type": "venue",
    "market": "",
    "category": "Festival Sites",
    "capacity": "",
    "lnIntrest": "",
    "symbol": "JAM",
    "links": [
      {
        "text": "",
        "href": "",
        "$$hashKey": "0S8"
      }
    ],
    "pictures": [
      "/Content/img/Map/Locations/festival-sites/jam.jpg"
    ],
    "url": "http://www.jamboreeinthehills.com/",
    "address": "43510 National Road, Belmont, OH 43718, USA",
    "phone": "+1 800-624-5456",
    "$$hashKey": "09E"
  },
  "38": {
    "position": {
      "lat": 40.29035,
      "lng": -76.65908999999999
    },
    "title": "Mixtape Festival",
    "city": "Hershey",
    "country": "",
    "region": "Pennsylvania",
    "type": "venue",
    "market": "",
    "category": "Festival Sites",
    "capacity": "",
    "lnIntrest": "",
    "symbol": "MXF",
    "links": [
      {
        "text": "",
        "href": "",
        "$$hashKey": "0S5"
      }
    ],
    "pictures": [
      "/Content/img/Map/Locations/festival-sites/mxf.jpg"
    ],
    "url": "",
    "address": "553-617 Hersheypark Drive, Hershey, PA 17033, USA",
    "phone": "",
    "$$hashKey": "09C"
  },
  "39": {
    "position": {
      "lat": 50.9706459,
      "lng": 4.718988999999965
    },
    "title": "Rock Werchter",
    "city": "Werchter",
    "country": "",
    "region": "Belgium",
    "type": "venue",
    "market": "",
    "category": "Festival Sites",
    "capacity": "",
    "lnIntrest": "",
    "symbol": "RWC",
    "links": [
      {
        "text": "",
        "href": "",
        "$$hashKey": "0S2"
      }
    ],
    "pictures": [
      "/Content/img/Map/Locations/festival-sites/rwc.jpg"
    ],
    "url": "",
    "address": "Veerpont, 3110 Rotselaar, Belgium",
    "phone": "",
    "$$hashKey": "09A"
  },
  "40": {
    "position": {
      "lat": 35.1632,
      "lng": 136.884186
    },
    "title": "Punk Spring Nagoya",
    "city": "Nagoya",
    "country": "",
    "region": "Japan",
    "type": "venue",
    "market": "",
    "category": "Festival Sites",
    "capacity": "",
    "lnIntrest": "",
    "symbol": "PSN",
    "links": [
      {
        "text": "",
        "href": "",
        "$$hashKey": "0RZ"
      }
    ],
    "pictures": [
      "/Content/img/Map/Locations/festival-sites/psn.jpg"
    ],
    "url": "",
    "address": "4 Chome-60-7 Hiraikechō, Nakamura-ku, Nagoya-shi, Aichi-ken 453-0872, Japan",
    "phone": "",
    "$$hashKey": "098"
  },
  "41": {
    "position": {
      "lat": 34.69008,
      "lng": 135.195511
    },
    "title": "Punk Spring Osaka",
    "city": "Osaka",
    "country": "",
    "region": "Japan",
    "type": "venue",
    "market": "",
    "category": "Festival Sites",
    "capacity": "",
    "lnIntrest": "",
    "symbol": "PSO",
    "links": [
      {
        "text": "",
        "href": "",
        "$$hashKey": "0RW"
      }
    ],
    "pictures": [
      "/Content/img/Map/Locations/festival-sites/pso.jpg"
    ],
    "url": "",
    "address": "Flower Road, 6 Chome-5 Kanocho, Chuo-ku, Kobe-shi, Hyogo-ken 650-0001, Japan",
    "phone": "",
    "$$hashKey": "096"
  },
  "42": {
    "position": {
      "lat": 35.68949,
      "lng": 139.69171099999994
    },
    "title": "Punk Spring Tokyo",
    "city": "Tokyo",
    "country": "",
    "region": "Japan",
    "type": "venue",
    "market": "",
    "category": "Festival Sites",
    "capacity": "",
    "lnIntrest": "",
    "symbol": "PST",
    "links": [
      {
        "text": "",
        "href": "",
        "$$hashKey": "0RT"
      }
    ],
    "pictures": [
      "/Content/img/Map/Locations/festival-sites/pst.jpg"
    ],
    "url": "",
    "address": "2 Chome-8-1 Nishishinjuku, Shinjuku-ku, Tōkyō-to 160-0023, Japan",
    "phone": "",
    "$$hashKey": "094"
  },
  "43": {
    "position": {
      "lat": 30.39488,
      "lng": -82.94423999999998
    },
    "title": "WANEE Festival",
    "city": "Live Oak",
    "country": "",
    "region": "Florida",
    "type": "venue",
    "market": "",
    "category": "Festival Sites",
    "capacity": "",
    "lnIntrest": "",
    "symbol": "WAF",
    "links": [
      {
        "text": "",
        "href": "",
        "$$hashKey": "0RQ"
      }
    ],
    "pictures": [
      "/Content/img/Map/Locations/festival-sites/waf.jpg"
    ],
    "url": "http://www.musicliveshere.com/content/index.php",
    "address": "3076 95th Drive, Live Oak, FL 32060, United States",
    "phone": "+1 386-364-1683",
    "$$hashKey": "092"
  },
  "44": {
    "position": {
      "lat": 51.53875,
      "lng": -0.01586999999994987
    },
    "title": "Yahoo Wireless",
    "city": "London",
    "country": "",
    "region": "England",
    "type": "venue",
    "market": "",
    "category": "Festival Sites",
    "capacity": "",
    "lnIntrest": "",
    "symbol": "YAW",
    "links": [
      {
        "text": "",
        "href": "",
        "$$hashKey": "0RN"
      }
    ],
    "pictures": [
      "/Content/img/Map/Locations/festival-sites/yaw.jpg"
    ],
    "url": "",
    "address": "Stratford Walk, London E15 2NG, UK",
    "phone": "",
    "$$hashKey": "090"
  },
  "45": {
    "position": {
      "lat": 28.54005,
      "lng": -81.40168
    },
    "title": "EDC Orlando",
    "city": "Orlando",
    "country": "",
    "region": "Florida",
    "type": "venue",
    "market": "",
    "category": "Festival Sites",
    "capacity": "",
    "lnIntrest": "",
    "symbol": "EDO",
    "links": [
      {
        "text": "",
        "href": "",
        "$$hashKey": "0RK"
      }
    ],
    "pictures": [
      "/Content/img/Map/Locations/festival-sites/edo.jpg"
    ],
    "url": "",
    "address": "1610 West Church Street, Orlando, FL 32805, USA",
    "phone": "",
    "$$hashKey": "08Y"
  },
  "46": {
    "position": {
      "lat": 49.72628,
      "lng": -123.140671
    },
    "title": "Squamish Festival",
    "city": "Squamish ",
    "country": "",
    "region": "British Columbia",
    "type": "venue",
    "market": "",
    "category": "Festival Sites",
    "capacity": "",
    "lnIntrest": "",
    "symbol": "SQF",
    "links": [
      {
        "text": "",
        "href": "",
        "$$hashKey": "0RH"
      }
    ],
    "pictures": [
      "/Content/img/Map/Locations/festival-sites/sqf.jpg"
    ],
    "url": "",
    "address": "40001 Loggers Lane, Squamish, BC V8B 0H3, Canada",
    "phone": "",
    "$$hashKey": "08W"
  },
  "47": {
    "position": {
      "lat": 50.28645,
      "lng": 2.761250000000018
    },
    "title": "Main Square Festival",
    "city": "Arras",
    "country": "",
    "region": "France",
    "type": "venue",
    "market": "",
    "category": "Festival Sites",
    "capacity": "",
    "lnIntrest": "",
    "symbol": "MSF",
    "links": [
      {
        "text": "",
        "href": "",
        "$$hashKey": "0RE"
      }
    ],
    "pictures": [
      "/Content/img/Map/Locations/festival-sites/msf.jpg"
    ],
    "url": "",
    "address": "Boulevard du Général de Gaulle, 62000 Arras, France",
    "phone": "",
    "$$hashKey": "08U"
  },
  "48": {
    "position": {
      "lat": 57.6926,
      "lng": 11.94798000000003
    },
    "title": "Way Out West",
    "city": "Gothenburg",
    "country": "",
    "region": "Sweden",
    "type": "venue",
    "market": "",
    "category": "Festival Sites",
    "capacity": "",
    "lnIntrest": "",
    "symbol": "WOW",
    "links": [
      {
        "text": "",
        "href": "",
        "$$hashKey": "0RB"
      }
    ],
    "pictures": [
      "/Content/img/Map/Locations/festival-sites/wow.jpg"
    ],
    "url": "http://www.sov.nu/",
    "address": "Vegagatan 21, 413 11 Göteborg, Sweden",
    "phone": "+46 31 42 65 20",
    "$$hashKey": "08S"
  },
  "49": {
    "position": {
      "lat": 51.44759,
      "lng": 5.451009999999997
    },
    "title": "Discovery Festival Eindhoven",
    "city": "Eindhoven",
    "country": "",
    "region": "Netherlands",
    "type": "venue",
    "market": "",
    "category": "Festival Sites",
    "capacity": "",
    "lnIntrest": "",
    "symbol": "DFE",
    "links": [
      {
        "text": "",
        "href": "",
        "$$hashKey": "0R8"
      }
    ],
    "pictures": [
      "/Content/img/Map/Locations/festival-sites/dfe.jpg"
    ],
    "url": "",
    "address": "Beukenlaan 9, 5616 SH Eindhoven, Netherlands",
    "phone": "",
    "$$hashKey": "08Q"
  },
  "50": {
    "position": {
      "lat": 51.91233,
      "lng": 4.473299999999995
    },
    "title": "Discovery Festival Rotterdam",
    "city": "Rotterdam",
    "country": "",
    "region": "Netherlands",
    "type": "venue",
    "market": "",
    "category": "Festival Sites",
    "capacity": "",
    "lnIntrest": "",
    "symbol": "DFR",
    "links": [
      {
        "text": "",
        "href": "",
        "$$hashKey": "0R5"
      }
    ],
    "pictures": [
      "/Content/img/Map/Locations/festival-sites/dfr.jpg"
    ],
    "url": "",
    "address": "Melkkoppad, 3015 Rotterdam, Netherlands",
    "phone": "",
    "$$hashKey": "08O"
  },
  "51": {
    "position": {
      "lat": 52.3549,
      "lng": 4.911929999999984
    },
    "title": "Discovery Festival Amsterdam",
    "city": "Amsterdam",
    "country": "",
    "region": "Netherlands",
    "type": "venue",
    "market": "",
    "category": "Festival Sites",
    "capacity": "",
    "lnIntrest": "",
    "symbol": "DFA",
    "links": [
      {
        "text": "",
        "href": "",
        "$$hashKey": "0R2"
      }
    ],
    "pictures": [
      "/Content/img/Map/Locations/festival-sites/dfa.jpg"
    ],
    "url": "",
    "address": "Wibautstraat 125-127, 1091 Amsterdam, Netherlands",
    "phone": "",
    "$$hashKey": "08M"
  },
  "52": {
    "position": {
      "lat": 47.09572,
      "lng": -119.98265800000001
    },
    "title": "Paradisco",
    "city": "George",
    "country": "",
    "region": "Washington",
    "type": "venue",
    "market": "",
    "category": "Festival Sites",
    "capacity": "",
    "lnIntrest": "",
    "symbol": "PAD",
    "links": [
      {
        "text": "",
        "href": "",
        "$$hashKey": "0QZ"
      }
    ],
    "pictures": [
      "/Content/img/Map/Locations/festival-sites/pad.jpg"
    ],
    "url": "",
    "address": "456-900 Silica Road Northwest, Quincy, WA 98848, USA",
    "phone": "",
    "$$hashKey": "08K"
  },
  "53": {
    "position": {
      "lat": 52.26228,
      "lng": 5.400520000000029
    },
    "title": "Where The Wild Things Are Festival",
    "city": "Zeewolde",
    "country": "",
    "region": "Netherlands",
    "type": "venue",
    "market": "",
    "category": "Festival Sites",
    "capacity": "",
    "lnIntrest": "",
    "symbol": "WWT",
    "links": [
      {
        "text": "",
        "href": "",
        "$$hashKey": "0QW"
      }
    ],
    "pictures": [
      "/Content/img/Map/Locations/festival-sites/wwt.jpg"
    ],
    "url": "",
    "address": "Slingerweg 1, 3896 LD Zeewolde, Netherlands",
    "phone": "",
    "$$hashKey": "08I"
  },
  "54": {
    "position": {
      "lat": 37.42664,
      "lng": -122.08009300000003
    },
    "title": "Beyond Wonderland - Bay Area",
    "city": "Mountainview",
    "country": "",
    "region": "California",
    "type": "venue",
    "market": "",
    "category": "Festival Sites",
    "capacity": "",
    "lnIntrest": "",
    "symbol": "BEW",
    "links": [
      {
        "text": "",
        "href": "",
        "$$hashKey": "0QT"
      }
    ],
    "pictures": [
      "/Content/img/Map/Locations/festival-sites/bew.jpg"
    ],
    "url": "",
    "address": "1 Amphitheatre Parkway, Mountain View, CA 94043, USA",
    "phone": "",
    "$$hashKey": "08G"
  },
  "55": {
    "position": {
      "lat": 34.67159,
      "lng": 135.21519999999998
    },
    "title": "Springoove ",
    "city": "Osaka",
    "country": "",
    "region": "Japan",
    "type": "venue",
    "market": "",
    "category": "Festival Sites",
    "capacity": "",
    "lnIntrest": "",
    "symbol": "SGV",
    "links": [
      {
        "text": "",
        "href": "",
        "$$hashKey": "0QQ"
      }
    ],
    "pictures": [
      "/Content/img/Map/Locations/festival-sites/sgv.jpg"
    ],
    "url": "",
    "address": "2 Chome-2-2 Minatojima Nakamachi, Chūō-ku, Kōbe-shi, Hyōgo-ken 650-0046, Japan",
    "phone": "",
    "$$hashKey": "08E"
  },
  "56": {
    "position": {
      "lat": 35.64643,
      "lng": 140.03089999999997
    },
    "title": "Summersonic",
    "city": "Tokyo",
    "country": "",
    "region": "Japan",
    "type": "venue",
    "market": "",
    "category": "Festival Sites",
    "capacity": "",
    "lnIntrest": "",
    "symbol": "SUM",
    "links": [
      {
        "text": "",
        "href": "",
        "$$hashKey": "0QN"
      }
    ],
    "pictures": [
      "/Content/img/Map/Locations/festival-sites/sum.jpg"
    ],
    "url": "",
    "address": "1 Mihama, Mihama-ku, Chiba-shi, Chiba-ken 261-0022, Japan",
    "phone": "",
    "$$hashKey": "08C"
  },
  "57": {
    "position": {
      "lat": 34.66789,
      "lng": 135.400085
    },
    "title": "Summersonic",
    "city": "Osaka",
    "country": "",
    "region": "Japan",
    "type": "venue",
    "market": "",
    "category": "Festival Sites",
    "capacity": "",
    "lnIntrest": "",
    "symbol": "SUM",
    "links": [
      {
        "text": "",
        "href": "",
        "$$hashKey": "0QK"
      }
    ],
    "pictures": [
      "/Content/img/Map/Locations/festival-sites/sum.jpg"
    ],
    "url": "",
    "address": "2 Chome-1-92 Hokukōryokuchi, Konohana-ku, Ōsaka-shi, Ōsaka-fu 554-0042, Japan",
    "phone": "",
    "$$hashKey": "08A"
  },
  "58": {
    "position": {
      "lat": 50.95294,
      "lng": 5.348780000000033
    },
    "title": "Pukkelpop",
    "city": "Hasselt",
    "country": "",
    "region": "Belgium",
    "type": "venue",
    "market": "",
    "category": "Festival Sites",
    "capacity": "",
    "lnIntrest": "",
    "symbol": "PUK",
    "links": [
      {
        "text": "",
        "href": "",
        "$$hashKey": "0QH"
      }
    ],
    "pictures": [
      "/Content/img/Map/Locations/festival-sites/puk.jpg"
    ],
    "url": "",
    "address": "Kempische Steenweg 351-457, 3500 Hasselt, Belgium",
    "phone": "",
    "$$hashKey": "088"
  },
  "59": {
    "position": {
      "lat": 47.09572,
      "lng": -119.98265800000001
    },
    "title": "Sasquatch! Festival",
    "city": "George",
    "country": "",
    "region": "Washington",
    "type": "venue",
    "market": "",
    "category": "Festival Sites",
    "capacity": "",
    "lnIntrest": "",
    "symbol": "SAF",
    "links": [
      {
        "text": "",
        "href": "",
        "$$hashKey": "0QE"
      }
    ],
    "pictures": [
      "/Content/img/Map/Locations/festival-sites/saf.jpg"
    ],
    "url": "",
    "address": "456-900 Silica Road Northwest, Quincy, WA 98848, USA",
    "phone": "",
    "$$hashKey": "086"
  },
  "60": {
    "position": {
      "lat": 41.34966,
      "lng": -75.67219999999998
    },
    "title": "The Peach Music Festival",
    "city": "Scranton",
    "country": "",
    "region": "Pennsylvania",
    "type": "venue",
    "market": "",
    "category": "Festival Sites",
    "capacity": "",
    "lnIntrest": "",
    "symbol": "PMF",
    "links": [
      {
        "text": "",
        "href": "",
        "$$hashKey": "0QB"
      }
    ],
    "pictures": [
      "/Content/img/Map/Locations/festival-sites/pmf.jpg"
    ],
    "url": "",
    "address": "399 Montage Mountain Road, Scranton, PA 18507, USA",
    "phone": "",
    "$$hashKey": "084"
  },
  "61": {
    "position": {
      "lat": 51.82177,
      "lng": 5.828009999999949
    },
    "title": "FortaRock XL",
    "city": "Nijmegen",
    "country": "",
    "region": "Netherlands",
    "type": "venue",
    "market": "",
    "category": "Festival Sites",
    "capacity": "",
    "lnIntrest": "",
    "symbol": "FRL",
    "links": [
      {
        "text": "",
        "href": "",
        "$$hashKey": "0Q8"
      }
    ],
    "pictures": [
      "/Content/img/Map/Locations/festival-sites/frl.jpg"
    ],
    "url": "",
    "address": "Weg door Jonkerbos 57, 6532 CN Nijmegen, Netherlands",
    "phone": "",
    "$$hashKey": "082"
  },
  "62": {
    "position": {
      "lat": 35.64749,
      "lng": 140.035126
    },
    "title": "Springroove",
    "city": "Tokyo",
    "country": "",
    "region": "Japan",
    "type": "venue",
    "market": "",
    "category": "Festival Sites",
    "capacity": "",
    "lnIntrest": "",
    "symbol": "SGV",
    "links": [
      {
        "text": "",
        "href": "",
        "$$hashKey": "0Q5"
      }
    ],
    "pictures": [
      "/Content/img/Map/Locations/festival-sites/sgv.jpg"
    ],
    "url": "",
    "address": "2 Chome-1 Nakase, Mihama-ku, Chiba-shi, Chiba-ken 261-0023, Japan",
    "phone": "",
    "$$hashKey": "080"
  },
  "63": {
    "position": {
      "lat": 35.64643,
      "lng": 140.03089999999997
    },
    "title": "Summersonic",
    "city": "Tokyo",
    "country": "",
    "region": "Japan",
    "type": "venue",
    "market": "",
    "category": "Festival Sites",
    "capacity": "",
    "lnIntrest": "",
    "symbol": "SST",
    "links": [
      {
        "text": "",
        "href": "",
        "$$hashKey": "0Q2"
      }
    ],
    "pictures": [
      "/Content/img/Map/Locations/festival-sites/sst.jpg"
    ],
    "url": "",
    "address": "1 Mihama, Mihama-ku, Chiba-shi, Chiba-ken 261-0022, Japan",
    "phone": "",
    "$$hashKey": "07Y"
  },
  "64": {
    "position": {
      "lat": 35.64749,
      "lng": 140.035126
    },
    "title": "Springroove",
    "city": "Tokyo",
    "country": "",
    "region": "Japan",
    "type": "venue",
    "market": "",
    "category": "Festival Sites",
    "capacity": "",
    "lnIntrest": "",
    "symbol": "SGT",
    "links": [
      {
        "text": "",
        "href": "",
        "$$hashKey": "0PZ"
      }
    ],
    "pictures": [
      "/Content/img/Map/Locations/festival-sites/sgt.jpg"
    ],
    "url": "",
    "address": "2 Chome-1 Nakase, Mihama-ku, Chiba-shi, Chiba-ken 261-0023, Japan",
    "phone": "",
    "$$hashKey": "07W"
  },
  "65": {
    "position": {
      "lat": 51.50226,
      "lng": -0.08143999999992957
    },
    "title": "Wonderland",
    "city": "London",
    "country": "",
    "region": "England",
    "type": "venue",
    "market": "",
    "category": "Festival Sites",
    "capacity": "",
    "lnIntrest": "",
    "symbol": "WDL",
    "links": [
      {
        "text": "",
        "href": "",
        "$$hashKey": "0PW"
      }
    ],
    "pictures": [
      "/Content/img/Map/Locations/festival-sites/wdl.jpg"
    ],
    "url": "",
    "address": "9 Crucifix Lane, London SE1, UK",
    "phone": "",
    "$$hashKey": "07U"
  },
  "66": {
    "position": {
      "lat": 51.88228,
      "lng": 4.4874999999999545
    },
    "title": "North Sea Jazz Festival",
    "city": "Rotterdam",
    "country": "",
    "region": "Netherlands",
    "type": "venue",
    "market": "",
    "category": "Festival Sites",
    "capacity": "",
    "lnIntrest": "",
    "symbol": "NSJ",
    "links": [
      {
        "text": "",
        "href": "",
        "$$hashKey": "0PT"
      }
    ],
    "pictures": [
      "/Content/img/Map/Locations/festival-sites/nsj.jpg"
    ],
    "url": "",
    "address": "Ahoyweg 12, 3084 BA Rotterdam, Netherlands",
    "phone": "",
    "$$hashKey": "07S"
  },
  "67": {
    "position": {
      "lat": 55.69315,
      "lng": 12.613180000000057
    },
    "title": "Copenhell",
    "city": "Copenhagen",
    "country": "",
    "region": "Denmark",
    "type": "venue",
    "market": "",
    "category": "Festival Sites",
    "capacity": "",
    "lnIntrest": "",
    "symbol": "CPH",
    "links": [
      {
        "text": "",
        "href": "",
        "$$hashKey": "0PQ"
      }
    ],
    "pictures": [
      "/Content/img/Map/Locations/festival-sites/cph.jpg"
    ],
    "url": "",
    "address": "Refshalevej 171, 1432 København K, Denmark",
    "phone": "",
    "$$hashKey": "07Q"
  },
  "68": {
    "position": {
      "lat": 43.62933,
      "lng": -79.41507000000001
    },
    "title": "Digital Dreams",
    "city": "Toronto",
    "country": "",
    "region": "Ontario",
    "type": "venue",
    "market": "",
    "category": "Festival Sites",
    "capacity": "",
    "lnIntrest": "",
    "symbol": "DGD",
    "links": [
      {
        "text": "",
        "href": "",
        "$$hashKey": "0PN"
      }
    ],
    "pictures": [
      "/Content/img/Map/Locations/festival-sites/dgd.jpg"
    ],
    "url": "",
    "address": "909 Lake Shore Boulevard West, Toronto, ON M6K 3L3, Canada",
    "phone": "",
    "$$hashKey": "07O"
  },
  "69": {
    "position": {
      "lat": 58.44254,
      "lng": 8.84710999999993
    },
    "title": "Hove",
    "city": "Ardenal",
    "country": "",
    "region": "Norway",
    "type": "venue",
    "market": "",
    "category": "Festival Sites",
    "capacity": "",
    "lnIntrest": "",
    "symbol": "HOV",
    "links": [
      {
        "text": "",
        "href": "",
        "$$hashKey": "0PK"
      }
    ],
    "pictures": [
      "/Content/img/Map/Locations/festival-sites/hov.jpg"
    ],
    "url": "http://www.hoveleirsenter.no/",
    "address": "Hoveveien 100, 4818 Færvik, Norway",
    "phone": "+47 37 08 52 21",
    "$$hashKey": "07M"
  },
  "70": {
    "position": {
      "lat": 51.25747,
      "lng": 5.6898499999999785
    },
    "title": "Bospop",
    "city": "Weert",
    "country": "",
    "region": "Netherlands",
    "type": "venue",
    "market": "",
    "category": "Festival Sites",
    "capacity": "",
    "lnIntrest": "",
    "symbol": "BSP",
    "links": [
      {
        "text": "",
        "href": "",
        "$$hashKey": "0PH"
      }
    ],
    "pictures": [
      "/Content/img/Map/Locations/festival-sites/bsp.jpg"
    ],
    "url": "http://xxl-security.nl/",
    "address": "Ringbaan-West, 6002 Weert, Netherlands",
    "phone": "+31 495 450 833",
    "$$hashKey": "07K"
  },
  "71": {
    "position": {
      "lat": 52.38604,
      "lng": 4.8661200000000235
    },
    "title": "Pitch Festival Amsterdam",
    "city": "Amsterdam",
    "country": "",
    "region": "Netherlands",
    "type": "venue",
    "market": "",
    "category": "Festival Sites",
    "capacity": "",
    "lnIntrest": "",
    "symbol": "PFA",
    "links": [
      {
        "text": "",
        "href": "",
        "$$hashKey": "0PE"
      }
    ],
    "pictures": [
      "/Content/img/Map/Locations/festival-sites/pfa.jpg"
    ],
    "url": "",
    "address": "Polonceaukade 10, 1014 DA Amsterdam, Netherlands",
    "phone": "",
    "$$hashKey": "07I"
  },
  "72": {
    "position": {
      "lat": 51.54327,
      "lng": -0.012479999999982283
    },
    "title": "EDC London",
    "city": "London",
    "country": "",
    "region": "England",
    "type": "venue",
    "market": "",
    "category": "Festival Sites",
    "capacity": "",
    "lnIntrest": "",
    "symbol": "EDL",
    "links": [
      {
        "text": "",
        "href": "",
        "$$hashKey": "0PB"
      }
    ],
    "pictures": [
      "/Content/img/Map/Locations/festival-sites/edl.jpg"
    ],
    "url": "",
    "address": "Westfield Avenue, London E15 2DU, UK",
    "phone": "",
    "$$hashKey": "07G"
  },
  "73": {
    "position": {
      "lat": 52.26292,
      "lng": 20.925839999999994
    },
    "title": "Impact Fest",
    "city": "Warsaw",
    "country": "",
    "region": "Poland",
    "type": "venue",
    "market": "",
    "category": "Festival Sites",
    "capacity": "",
    "lnIntrest": "",
    "symbol": "IPF",
    "links": [
      {
        "text": "",
        "href": "",
        "$$hashKey": "0P8"
      }
    ],
    "pictures": [
      "/Content/img/Map/Locations/festival-sites/ipf.jpg"
    ],
    "url": "",
    "address": "Powstańców Śląskich 125, Warszawa, Poland",
    "phone": "",
    "$$hashKey": "07E"
  },
  "74": {
    "position": {
      "lat": 53.40228,
      "lng": -2.9812299999999823
    },
    "title": "Creamfields",
    "city": "Liverpool",
    "country": "",
    "region": "England",
    "type": "venue",
    "market": "",
    "category": "Festival Sites",
    "capacity": "",
    "lnIntrest": "",
    "symbol": "CMF",
    "links": [
      {
        "text": "",
        "href": "",
        "$$hashKey": "0P5"
      }
    ],
    "pictures": [
      "/Content/img/Map/Locations/festival-sites/cmf.jpg"
    ],
    "url": "",
    "address": "1-3 Parr Street, Liverpool, Liverpool, Merseyside L1 4JJ, UK",
    "phone": "",
    "$$hashKey": "07C"
  },
  "75": {
    "position": {
      "lat": 53.3443336,
      "lng": -6.240234999999984
    },
    "title": "Bord Gáis Energy Theatre",
    "city": "Dublin",
    "country": "",
    "region": "Ireland",
    "type": "venue",
    "market": "Ireland",
    "category": "Theaters",
    "capacity": 2000,
    "lnIntrest": "Operated",
    "symbol": "NRG",
    "links": [
      {
        "text": "",
        "href": "",
        "$$hashKey": "0P2"
      }
    ],
    "pictures": [
      "/Content/img/Map/Locations/theaters/bordgaisenergytheatre.jpg"
    ],
    "url": "http://www.bordgaisenergytheatre.ie/",
    "address": "Grand Canal Square, Docklands, Dublin 2, Ireland",
    "phone": "+353 1 677 7999",
    "$$hashKey": "07A"
  },
  "76": {
    "position": {
      "lat": 38.8965721,
      "lng": -77.02953000000002
    },
    "title": "Warner Theatre",
    "city": "Washington, DC",
    "country": "",
    "region": "Washington, DC",
    "type": "venue",
    "market": "Washington DC",
    "category": "Theaters",
    "capacity": 1900,
    "lnIntrest": "Operated",
    "symbol": "WNR",
    "links": [
      {
        "text": "",
        "href": "",
        "$$hashKey": "0OZ"
      }
    ],
    "pictures": [
      "/Content/img/Map/Locations/theaters/warner-theater.jpg"
    ],
    "url": "http://www.warnertheatredc.com/",
    "address": "513 13th Street Northwest, Washington, DC 20004, USA",
    "phone": "+1 202-783-4000",
    "$$hashKey": "078"
  },
  "77": {
    "position": {
      "lat": 41.4498749,
      "lng": -72.84537999999998
    },
    "title": "Toyota Presents Oakdale Theatre",
    "city": "Wallingford ",
    "country": "",
    "region": "Connecticut",
    "type": "venue",
    "market": "Hartford",
    "category": "Theaters",
    "capacity": 4600,
    "lnIntrest": "Owned",
    "symbol": "TOY",
    "links": [
      {
        "text": "",
        "href": "",
        "$$hashKey": "0OW"
      }
    ],
    "pictures": [
      "/Content/img/Map/Locations/theaters/toyotapresents-oakdaletheatre.jpg"
    ],
    "url": "http://www.oakdale.com/",
    "address": "95 South Turnpike Road, Wallingford, CT 06492, USA",
    "phone": "+1 203-269-8721",
    "$$hashKey": "076"
  },
  "78": {
    "position": {
      "lat": 39.9610443,
      "lng": -75.25864000000001
    },
    "title": "Tower Theater",
    "city": "Upper Darby",
    "country": "",
    "region": "Pennsylvania",
    "type": "venue",
    "market": "Philadelphia",
    "category": "Theaters",
    "capacity": 3100,
    "lnIntrest": "Owned",
    "symbol": "TOW",
    "links": [
      {
        "text": "",
        "href": "",
        "$$hashKey": "0OT"
      }
    ],
    "pictures": [
      "/Content/img/Map/Locations/theaters/tower-theater.jpg"
    ],
    "url": "http://thetowerphilly.com/",
    "address": "19 South 69th Street, Upper Darby, PA 19082, USA",
    "phone": "+1 215-922-1011",
    "$$hashKey": "074"
  },
  "79": {
    "position": {
      "lat": 34.06154,
      "lng": -118.30886099999998
    },
    "title": "The Wiltern",
    "city": "Los Angeles",
    "country": "",
    "region": "California",
    "type": "venue",
    "market": "Los Angeles",
    "category": "Theaters",
    "capacity": 2300,
    "lnIntrest": "Operated",
    "symbol": "WLT",
    "links": [
      {
        "text": "",
        "href": "",
        "$$hashKey": "0OQ"
      }
    ],
    "pictures": [
      "/Content/img/Map/Locations/theaters/the-wiltern.jpg"
    ],
    "url": "http://www.wiltern.com/",
    "address": "3790 Wilshire Boulevard, Los Angeles, CA 90010, USA",
    "phone": "+1 213-388-1400",
    "$$hashKey": "072"
  },
  "80": {
    "position": {
      "lat": 33.75875,
      "lng": -84.39145000000002
    },
    "title": "The Tabernacle",
    "city": "Atlanta",
    "country": "",
    "region": "Georgia",
    "type": "venue",
    "market": "Atlanta",
    "category": "Theaters",
    "capacity": 2500,
    "lnIntrest": "Operated",
    "symbol": "TAB",
    "links": [
      {
        "text": "",
        "href": "",
        "$$hashKey": "0ON"
      }
    ],
    "pictures": [
      "/Content/img/Map/Locations/theaters/the-tabernacle.jpg"
    ],
    "url": "http://tabernacleatl.com/",
    "address": "152 Luckie Street Northwest, Atlanta, GA 30303, USA",
    "phone": "+1 404-659-9022",
    "$$hashKey": "070"
  },
  "81": {
    "position": {
      "lat": 38.65557,
      "lng": -90.29786999999999
    },
    "title": "The Pageant",
    "city": "St. Louis",
    "country": "",
    "region": "Missouri",
    "type": "venue",
    "market": "St. Louis",
    "category": "Theaters",
    "capacity": 2300,
    "lnIntrest": "50% Equity Interest",
    "symbol": "PAG",
    "links": [
      {
        "text": "",
        "href": "",
        "$$hashKey": "0OK"
      }
    ],
    "pictures": [
      "/Content/img/Map/Locations/theaters/thepageant.jpg"
    ],
    "url": "http://www.thepageant.com/",
    "address": "6161 Delmar Boulevard, Saint Louis, MO 63112, USA",
    "phone": "+1 314-726-6161",
    "$$hashKey": "06Y"
  },
  "82": {
    "position": {
      "lat": 38.2480354,
      "lng": -85.75779
    },
    "title": "The Louisville Palace",
    "city": "Louisville",
    "country": "",
    "region": "Kentucky",
    "type": "venue",
    "market": "Louisville",
    "category": "Theaters",
    "capacity": 2700,
    "lnIntrest": "Owned",
    "symbol": "LOU",
    "links": [
      {
        "text": "",
        "href": "",
        "$$hashKey": "0OH"
      }
    ],
    "pictures": [
      "/Content/img/Map/Locations/theaters/louisville-palace.jpg"
    ],
    "url": "http://louisvillepalace.com/",
    "address": "625 South 4th Street, Louisville, KY 40202, USA",
    "phone": "+1 502-583-4555",
    "$$hashKey": "06W"
  },
  "83": {
    "position": {
      "lat": 38.9974,
      "lng": -77.02737000000002
    },
    "title": "The Fillmore Silver Spring",
    "city": "Silver Spring",
    "country": "",
    "region": "Maryland",
    "type": "venue",
    "market": "Washington DC",
    "category": "Theaters",
    "capacity": 2000,
    "lnIntrest": "Operated",
    "symbol": "FIL",
    "links": [
      {
        "text": "",
        "href": "",
        "$$hashKey": "0OE"
      }
    ],
    "pictures": [
      "/Content/img/Map/Locations/theaters/filmoresilverspring.jpg"
    ],
    "url": "http://www.fillmoresilverspring.com/",
    "address": "8656 Colesville Road, Silver Spring, MD 20910, USA",
    "phone": "+1 301-960-9999",
    "$$hashKey": "06U"
  },
  "84": {
    "position": {
      "lat": 25.7929935,
      "lng": -80.1331558
    },
    "title": "The Fillmore Miami Beach at the Jackie Gleason Theater",
    "city": "Miami Beach",
    "country": "",
    "region": "Florida",
    "type": "venue",
    "market": "Miami",
    "category": "Theaters",
    "capacity": 2700,
    "lnIntrest": "Operated",
    "symbol": "FIL",
    "links": [
      {
        "text": "",
        "href": "",
        "$$hashKey": "0OB"
      }
    ],
    "pictures": [
      "/Content/img/Map/Locations/theaters/the-fillmore-miami-beach.jpg"
    ],
    "url": "http://www.fillmoremb.com/",
    "address": "1700 Washington Avenue, Miami Beach, FL 33139, USA",
    "phone": "+1 305-673-7300",
    "$$hashKey": "06S"
  },
  "85": {
    "position": {
      "lat": 42.3375473,
      "lng": -83.05221
    },
    "title": "The Fillmore Detroit ",
    "city": "Detroit",
    "country": "",
    "region": "Michigan",
    "type": "venue",
    "market": "Detroit",
    "category": "Theaters",
    "capacity": 2900,
    "lnIntrest": "Operated",
    "symbol": "FIL",
    "links": [
      {
        "text": "",
        "href": "",
        "$$hashKey": "0O8"
      }
    ],
    "pictures": [
      "/Content/img/Map/Locations/theaters/the-fillmore-detroit.jpg"
    ],
    "url": "http://www.thefillmoredetroit.com/",
    "address": "54 West Elizabeth Street, Detroit, MI 48201, USA",
    "phone": "+1 313-961-5451",
    "$$hashKey": "06Q"
  },
  "86": {
    "position": {
      "lat": 35.2393341,
      "lng": -80.84568999999999
    },
    "title": "The Fillmore Charlotte",
    "city": "Charlotte",
    "country": "",
    "region": "North Carolina",
    "type": "venue",
    "market": "Charlotte",
    "category": "Theaters",
    "capacity": 2000,
    "lnIntrest": "Operated",
    "symbol": "FIL",
    "links": [
      {
        "text": "",
        "href": "",
        "$$hashKey": "0O5"
      }
    ],
    "pictures": [
      "/Content/img/Map/Locations/theaters/the-fillmore-charlotte.jpg"
    ],
    "url": "http://fillmorecharlottenc.com/",
    "address": "1000 NC Music Factory Boulevard, Charlotte, NC 28206, USA",
    "phone": "+1 704-916-8970",
    "$$hashKey": "06O"
  },
  "87": {
    "position": {
      "lat": 37.7840347,
      "lng": -122.43301400000001
    },
    "title": "The Fillmore",
    "city": "San Francisco",
    "country": "",
    "region": "California",
    "type": "venue",
    "market": "San Francisco",
    "category": "Theaters",
    "capacity": 1200,
    "lnIntrest": "Operated",
    "symbol": "FIL",
    "links": [
      {
        "text": "",
        "href": "",
        "$$hashKey": "0O2"
      }
    ],
    "pictures": [
      "/Content/img/Map/Locations/theaters/the-fillmore-san-francisco.jpg"
    ],
    "url": "http://www.thefillmore.com",
    "address": "1567 Fillmore Street, San Francisco, CA 94115, USA",
    "phone": "+1 415-346-6000",
    "$$hashKey": "06M"
  },
  "88": {
    "position": {
      "lat": 50.90805,
      "lng": -1.405858999999964
    },
    "title": "Southampton Guildhall",
    "city": "Southampton",
    "country": "",
    "region": "England",
    "type": "venue",
    "market": "UK",
    "category": "Theaters",
    "capacity": 1800,
    "lnIntrest": "Operated",
    "symbol": "SOU",
    "links": [
      {
        "text": "",
        "href": "",
        "$$hashKey": "0NZ"
      }
    ],
    "pictures": [
      "/Content/img/Map/Locations/theaters/southamton-guildhall.jpg"
    ],
    "url": "http://www.o2guildhallsouthampton.co.uk/",
    "address": "78 West Marlands Road, Southampton, Southampton SO14 7FW, UK",
    "phone": "+44 23 8063 2601",
    "$$hashKey": "06K"
  },
  "89": {
    "position": {
      "lat": 42.35627,
      "lng": -71.06087000000002
    },
    "title": "Orpheum Theatre - Boston",
    "city": "Boston",
    "country": "",
    "region": "Massachusetts",
    "type": "venue",
    "market": "Boston",
    "category": "Theaters",
    "capacity": 2700,
    "lnIntrest": "Operated",
    "symbol": "OPH",
    "links": [
      {
        "text": "",
        "href": "",
        "$$hashKey": "0NW"
      }
    ],
    "pictures": [
      "/Content/img/Map/Locations/theaters/orpheum-theatre-boston.jpg"
    ],
    "url": "http://www.orpheumtheatreboston.com/",
    "address": "1 Hamilton Place, Boston, MA 02108, USA",
    "phone": "+1 617-482-0106",
    "$$hashKey": "06I"
  },
  "90": {
    "position": {
      "lat": 53.46953,
      "lng": -2.222120000000018
    },
    "title": "O2 Apollo Manchester",
    "city": "Manchester",
    "country": "",
    "region": "England",
    "type": "venue",
    "market": "UK",
    "category": "Theaters",
    "capacity": 3500,
    "lnIntrest": "Owned",
    "symbol": "O2O",
    "links": [
      {
        "text": "",
        "href": "",
        "$$hashKey": "0NT"
      }
    ],
    "pictures": [
      "/Content/img/Map/Locations/theaters/o2apollo-manchester.jpg"
    ],
    "url": "http://www.o2apollomanchester.co.uk/",
    "address": "8 Apsley Grove, Manchester, Manchester M12, UK",
    "phone": "+44 161 273 6921",
    "$$hashKey": "06G"
  },
  "91": {
    "position": {
      "lat": 51.50353,
      "lng": -0.22417399999994814
    },
    "title": "O2 Academy Shepherds Bush Empire",
    "city": "London",
    "country": "",
    "region": "England",
    "type": "venue",
    "market": "UK",
    "category": "Theaters",
    "capacity": 2000,
    "lnIntrest": "Owned",
    "symbol": "O2A",
    "links": [
      {
        "text": "",
        "href": "",
        "$$hashKey": "0NQ"
      }
    ],
    "pictures": [
      "/Content/img/Map/Locations/theaters/o2academy-shepherdsbushempire.jpg"
    ],
    "url": "http://www.o2shepherdsbushempire.co.uk/",
    "address": "Rockwood Place, White City, London W12 8TT, UK",
    "phone": "+44 20 8354 3300",
    "$$hashKey": "06E"
  },
  "92": {
    "position": {
      "lat": 53.3815079,
      "lng": -1.465832999999975
    },
    "title": "O2 Academy Sheffield",
    "city": "Sheffield",
    "country": "",
    "region": "England",
    "type": "venue",
    "market": "UK",
    "category": "Theaters",
    "capacity": 2400,
    "lnIntrest": "Operated",
    "symbol": "O2A",
    "links": [
      {
        "text": "",
        "href": "",
        "$$hashKey": "0NN"
      }
    ],
    "pictures": [
      "/Content/img/Map/Locations/theaters/o2academy-sheffield.jpg"
    ],
    "url": "http://www.o2academysheffield.co.uk/",
    "address": "14 Arundel Gate, Sheffield, Sheffield, South Yorkshire S1, UK",
    "phone": "+44 114 253 7777",
    "$$hashKey": "06C"
  },
  "93": {
    "position": {
      "lat": 51.74695,
      "lng": -1.2344279999999799
    },
    "title": "O2 Academy Oxford",
    "city": "Oxford",
    "country": "",
    "region": "England",
    "type": "venue",
    "market": "UK",
    "category": "Theaters",
    "capacity": 1000,
    "lnIntrest": "Operated",
    "symbol": "O2A",
    "links": [
      {
        "text": "",
        "href": "",
        "$$hashKey": "0NK"
      }
    ],
    "pictures": [
      "/Content/img/Map/Locations/theaters/o2academy-oxford.jpg"
    ],
    "url": "http://www.o2academyoxford.co.uk/",
    "address": "190-194 Cowley Road, Oxford, Oxford, Oxfordshire OX4 1UE, UK",
    "phone": "+44 1865 813500",
    "$$hashKey": "06A"
  },
  "94": {
    "position": {
      "lat": 54.9703979,
      "lng": -1.6188290000000052
    },
    "title": "O2 Academy Newcastle",
    "city": "Newcastle",
    "country": "",
    "region": "England",
    "type": "venue",
    "market": "UK",
    "category": "Theaters",
    "capacity": 2000,
    "lnIntrest": "Operated",
    "symbol": "O2A",
    "links": [
      {
        "text": "",
        "href": "",
        "$$hashKey": "0NH"
      }
    ],
    "pictures": [
      "/Content/img/Map/Locations/theaters/o2academy-newcastle.jpg"
    ],
    "url": "http://www.o2academynewcastle.co.uk/",
    "address": "100-102 Clayton Street West, Newcastle upon Tyne, Newcastle upon Tyne, Tyne and Wear NE1 5PG, UK",
    "phone": "+44 191 260 2020",
    "$$hashKey": "068"
  },
  "95": {
    "position": {
      "lat": 53.4087563,
      "lng": -2.9768530000000055
    },
    "title": "O2 Academy Liverpool",
    "city": "Liverpool",
    "country": "",
    "region": "England",
    "type": "venue",
    "market": "UK",
    "category": "Theaters",
    "capacity": 1200,
    "lnIntrest": "Operated",
    "symbol": "O2A",
    "links": [
      {
        "text": "",
        "href": "",
        "$$hashKey": "0NE"
      }
    ],
    "pictures": [
      "/Content/img/Map/Locations/theaters/o2academy-liverpool.jpg"
    ],
    "url": "http://www.o2academyliverpool.co.uk/",
    "address": "6 Hotham Street, Liverpool, Merseyside L3 5UF, UK",
    "phone": "+44 151 707 3200",
    "$$hashKey": "066"
  },
  "96": {
    "position": {
      "lat": 53.8023,
      "lng": -1.5473210000000108
    },
    "title": "O2 Academy Leeds",
    "city": "Leeds",
    "country": "",
    "region": "England",
    "type": "venue",
    "market": "UK",
    "category": "Theaters",
    "capacity": 2300,
    "lnIntrest": "Operated",
    "symbol": "O2A",
    "links": [
      {
        "text": "",
        "href": "",
        "$$hashKey": "0NB"
      }
    ],
    "pictures": [
      "/Content/img/Map/Locations/theaters/o2academy-leeds.jpg"
    ],
    "url": "http://www.o2academyleeds.co.uk/",
    "address": "99 Portland Crescent, Leeds, West Yorkshire LS1 3HJ, UK",
    "phone": "+44 844 477 2000",
    "$$hashKey": "064"
  },
  "97": {
    "position": {
      "lat": 51.5343246,
      "lng": -0.10663599999998041
    },
    "title": "O2 Academy Islington",
    "city": "London",
    "country": "",
    "region": "England",
    "type": "venue",
    "market": "UK",
    "category": "Theaters",
    "capacity": 800,
    "lnIntrest": "Operated",
    "symbol": "O2A",
    "links": [
      {
        "text": "",
        "href": "",
        "$$hashKey": "0N8"
      }
    ],
    "pictures": [
      "/Content/img/Map/Locations/theaters/o2academy-islington.jpg"
    ],
    "url": "http://www.o2academyislington.co.uk/",
    "address": "5-6 Parkfield Street, London N1 0PS, UK",
    "phone": "+44 20 7288 4400",
    "$$hashKey": "062"
  },
  "98": {
    "position": {
      "lat": 55.850605,
      "lng": -4.25935400000003
    },
    "title": "O2 Academy Glasgow",
    "city": "Glasgow",
    "country": "",
    "region": "Scotland",
    "type": "venue",
    "market": "UK",
    "category": "Theaters",
    "capacity": 2500,
    "lnIntrest": "Owned",
    "symbol": "O2A",
    "links": [
      {
        "text": "",
        "href": "",
        "$$hashKey": "0N5"
      }
    ],
    "pictures": [
      "/Content/img/Map/Locations/theaters/o2academy-glasgow.jpg"
    ],
    "url": "http://www.o2academyglasgow.co.uk/",
    "address": "Bedford Street, Glasgow, Glasgow City G5 9NT, UK",
    "phone": "+44 141 418 3000",
    "$$hashKey": "060"
  },
  "99": {
    "position": {
      "lat": 51.46524,
      "lng": -0.11495700000000397
    },
    "title": "O2 Academy Brixton",
    "city": "London",
    "country": "",
    "region": "England",
    "type": "venue",
    "market": "UK",
    "category": "Theaters",
    "capacity": 4900,
    "lnIntrest": "Operated",
    "symbol": "O2A",
    "links": [
      {
        "text": "",
        "href": "",
        "$$hashKey": "0N2"
      }
    ],
    "pictures": [
      "/Content/img/Map/Locations/theaters/o2academy-brixton.jpg"
    ],
    "url": "http://www.o2academybrixton.co.uk/",
    "address": "209 Stockwell Road, Stockwell, London SW9 9SL, UK",
    "phone": "+44 20 7771 3000",
    "$$hashKey": "05Y"
  },
  "100": {
    "position": {
      "lat": 51.4544373,
      "lng": -2.600369999999998
    },
    "title": "O2 Academy Bristol",
    "city": "Bristol",
    "country": "",
    "region": "England",
    "type": "venue",
    "market": "UK",
    "category": "Theaters",
    "capacity": 1900,
    "lnIntrest": "Operated",
    "symbol": "O2A",
    "links": [
      {
        "text": "",
        "href": "",
        "$$hashKey": "0MZ"
      }
    ],
    "pictures": [
      "/Content/img/Map/Locations/theaters/o2academy-bristol.jpg"
    ],
    "url": "http://www.o2academybristol.co.uk/",
    "address": "1-2 Frogmore Street, Bristol, Bristol, Avon BS1 5NA, UK",
    "phone": "+44 117 927 9227",
    "$$hashKey": "05W"
  },
  "101": {
    "position": {
      "lat": 50.72665,
      "lng": -1.8399070000000393
    },
    "title": "O2 Academy Bournemouth",
    "city": "Bournemouth",
    "country": "",
    "region": "England",
    "type": "venue",
    "market": "UK",
    "category": "Theaters",
    "capacity": 1800,
    "lnIntrest": "Operated",
    "symbol": "O2A",
    "links": [
      {
        "text": "",
        "href": "",
        "$$hashKey": "0MW"
      }
    ],
    "pictures": [
      "/Content/img/Map/Locations/theaters/o2academy-bournemouth.jpg"
    ],
    "url": "http://www.o2academybournemouth.co.uk/",
    "address": "554-556 Christchurch Road, Bournemouth, Bournemouth BH1 4BH, UK",
    "phone": "+44 1202 399922",
    "$$hashKey": "05U"
  },
  "102": {
    "position": {
      "lat": 52.473423,
      "lng": -1.9000909999999749
    },
    "title": "O2 Academy Birmingham",
    "city": "Birmingham",
    "country": "",
    "region": "England",
    "type": "venue",
    "market": "UK",
    "category": "Theaters",
    "capacity": 3000,
    "lnIntrest": "Operated",
    "symbol": "O2A",
    "links": [
      {
        "text": "",
        "href": "",
        "$$hashKey": "0MT"
      }
    ],
    "pictures": [
      "/Content/img/Map/Locations/theaters/o2academy-birmingham.jpg"
    ],
    "url": "http://www.o2academybirmingham.co.uk/",
    "address": "O2 Academy (Stop HF2), Birmingham, Birmingham, West Midlands B1, UK",
    "phone": "+44 121 622 8250",
    "$$hashKey": "05S"
  },
  "103": {
    "position": {
      "lat": 55.8656845,
      "lng": -4.264114999999947
    },
    "title": "O2 ABC Glasgow",
    "city": "Glasgow",
    "country": "",
    "region": "Scotland",
    "type": "venue",
    "market": "UK",
    "category": "Theaters",
    "capacity": 1600,
    "lnIntrest": "Operated",
    "symbol": "O2A",
    "links": [
      {
        "text": "",
        "href": "",
        "$$hashKey": "0MQ"
      }
    ],
    "pictures": [
      "/Content/img/Map/Locations/theaters/o2abc-glasgow.jpg"
    ],
    "url": "http://www.o2abcglasgow.co.uk/",
    "address": "300 Sauchiehall Street, Glasgow, Glasgow, Glasgow City G2, UK",
    "phone": "+44 141 332 2232",
    "$$hashKey": "05Q"
  },
  "104": {
    "position": {
      "lat": 40.77343,
      "lng": -73.55858
    },
    "title": "NYCB Theatre at Westbury",
    "city": "Westbury",
    "country": "",
    "region": "New York",
    "type": "venue",
    "market": "New York",
    "category": "Theaters",
    "capacity": 2800,
    "lnIntrest": "Operated",
    "symbol": "YCB",
    "links": [
      {
        "text": "",
        "href": "",
        "$$hashKey": "0MN"
      }
    ],
    "pictures": [
      "/Content/img/Map/Locations/theaters/nycbtheatre.jpg"
    ],
    "url": "http://venue.thetheatreatwestbury.com/",
    "address": "960 Brush Hollow Road, Westbury, NY 11590, USA",
    "phone": "+1 516-247-5200",
    "$$hashKey": "05O"
  },
  "105": {
    "position": {
      "lat": 37.7912941,
      "lng": -122.41324600000002
    },
    "title": "Nob Hill Masonic Center",
    "city": "San Francisco",
    "country": "",
    "region": "California",
    "type": "venue",
    "market": "San Francisco",
    "category": "Theaters",
    "capacity": 3300,
    "lnIntrest": "Operated",
    "symbol": "NOB",
    "links": [
      {
        "text": "",
        "href": "",
        "$$hashKey": "0MK"
      }
    ],
    "pictures": [
      "/Content/img/Map/Locations/theaters/nob-hill-masonic-center.jpg"
    ],
    "url": "http://www.masonicauditorium.com/",
    "address": "1044 Pine Street, San Francisco, CA 94109, USA",
    "phone": "+1 415-776-7457",
    "$$hashKey": "05M"
  },
  "106": {
    "position": {
      "lat": 39.77453,
      "lng": -86.15102389999998
    },
    "title": "Murat Theatre at Old National Centre",
    "city": "Indianapolis",
    "country": "",
    "region": "Indiana",
    "type": "venue",
    "market": "Indianapolis",
    "category": "Theaters",
    "capacity": 2500,
    "lnIntrest": "Operated",
    "symbol": "OLD",
    "links": [
      {
        "text": "",
        "href": "",
        "$$hashKey": "0MH"
      }
    ],
    "pictures": [
      "/Content/img/Map/Locations/theaters/murattheatre.jpg"
    ],
    "url": "http://www.oldnationalcentre.com/",
    "address": "502 North New Jersey Street, Indianapolis, IN 46204, USA",
    "phone": "+1 317-231-0000",
    "$$hashKey": "05K"
  },
  "107": {
    "position": {
      "lat": 34.0985451,
      "lng": -118.32425699999999
    },
    "title": "Hollywood Palladium",
    "city": "Los Angeles",
    "country": "",
    "region": "California",
    "type": "venue",
    "market": "Los Angeles",
    "category": "Theaters",
    "capacity": 3500,
    "lnIntrest": "Operated",
    "symbol": "HOP",
    "links": [
      {
        "text": "",
        "href": "",
        "$$hashKey": "0ME"
      }
    ],
    "pictures": [
      "/Content/img/Map/Locations/theaters/hollywood-palladium.jpg"
    ],
    "url": "http://www.livenation.com/venues/14586/hollywood-palladium",
    "address": "6215 Sunset Boulevard, Los Angeles, CA 90028, USA",
    "phone": "+1 323-962-7600",
    "$$hashKey": "05I"
  },
  "108": {
    "position": {
      "lat": 34.1380577,
      "lng": -118.353249
    },
    "title": "Gibson Amphitheatre at Universal Citywalk",
    "city": "Universal City",
    "country": "",
    "region": "California",
    "type": "venue",
    "market": "Los Angeles",
    "category": "Theaters",
    "capacity": 6200,
    "lnIntrest": "Operated",
    "symbol": "GIB",
    "links": [
      {
        "text": "",
        "href": "",
        "$$hashKey": "0MB"
      }
    ],
    "pictures": [
      "/Content/img/Map/Locations/theaters/gibson-ampitheater-la.jpg"
    ],
    "url": "http://www.citywalkhollywood.com/",
    "address": "100 Universal City Plaza, Universal City, CA 91608, USA",
    "phone": "+1 818-622-4455",
    "$$hashKey": "05G"
  },
  "109": {
    "position": {
      "lat": 39.740303,
      "lng": -104.97718800000001
    },
    "title": "Fillmore Auditorium",
    "city": "Denver",
    "country": "",
    "region": "Colorado",
    "type": "venue",
    "market": "Denver",
    "category": "Theaters",
    "capacity": 3600,
    "lnIntrest": "Owned",
    "symbol": "FIL",
    "links": [
      {
        "text": "",
        "href": "",
        "$$hashKey": "0M8"
      }
    ],
    "pictures": [
      "/Content/img/Map/Locations/theaters/fillmore-auditorium-denver.jpg"
    ],
    "url": "http://www.livenation.com/venues/14664/fillmore-auditorium-denver",
    "address": "1510 Clarkson Street, Denver, CO 80218, USA",
    "phone": "+1 303-837-0360",
    "$$hashKey": "05E"
  },
  "110": {
    "position": {
      "lat": 33.4488258,
      "lng": -112.07955900000002
    },
    "title": "Comerica Theatre",
    "city": "Phoenix",
    "country": "",
    "region": "Arizona",
    "type": "venue",
    "market": "Phoenix",
    "category": "Theaters",
    "capacity": 5500,
    "lnIntrest": "Operated",
    "symbol": "COM",
    "links": [
      {
        "text": "",
        "href": "",
        "$$hashKey": "0M5"
      }
    ],
    "pictures": [
      "/Content/img/Map/Locations/theaters/comerica-theatre.jpg"
    ],
    "url": "http://www.comericatheatre.com/",
    "address": "400 West Washington Street, Phoenix, AZ 85003, USA",
    "phone": "+1 602-379-2800",
    "$$hashKey": "05C"
  },
  "111": {
    "position": {
      "lat": 29.7622318,
      "lng": -95.36637999999999
    },
    "title": "Bayou Music Center",
    "city": "Houston",
    "country": "",
    "region": "Texas",
    "type": "venue",
    "market": "Houston",
    "category": "Theaters",
    "capacity": 2900,
    "lnIntrest": "Operated",
    "symbol": "BAY",
    "links": [
      {
        "text": "",
        "href": "",
        "$$hashKey": "0M2"
      }
    ],
    "pictures": [
      "/Content/img/Map/Locations/theaters/bayoumusiccenter.jpg"
    ],
    "url": "http://www.bayoumusiccenter.com/",
    "address": "540 Texas Avenue, Houston, TX 77002, USA",
    "phone": "+1 713-230-1600",
    "$$hashKey": "05A"
  },
  "112": {
    "position": {
      "lat": 29.978456,
      "lng": -90.0778075
    },
    "title": "Voodoo Music & Arts Experience",
    "city": "New Orleans",
    "country": "",
    "region": "Louisiana",
    "type": "venue",
    "market": "New Orleans",
    "category": "Festival Sites",
    "capacity": "N/A",
    "lnIntrest": "Owned (1) / Operated (1)",
    "symbol": "VDE",
    "links": [
      {
        "text": "",
        "href": "",
        "$$hashKey": "0LZ"
      }
    ],
    "pictures": [
      "/Content/img/Map/Locations/festival-sites/voodoo.png"
    ],
    "url": "",
    "address": "2656 Bayou Road, New Orleans, LA 70119, USA",
    "phone": "",
    "$$hashKey": "058"
  },
  "113": {
    "position": {
      "lat": 34.09494,
      "lng": -118.37365699999998
    },
    "title": "House of Blues",
    "city": "West Hollywood",
    "country": "",
    "region": "California",
    "type": "venue",
    "market": "Los Angeles",
    "category": "HOB Clubs",
    "capacity": 1000,
    "lnIntrest": "Operated",
    "symbol": "HOB",
    "links": [
      {
        "text": "",
        "href": "",
        "$$hashKey": "0LW"
      }
    ],
    "pictures": [
      "/Content/img/Map/Locations/hob-clubs/los-angeles.jpg"
    ],
    "url": "http://www.houseofblues.com/losangeles",
    "address": "8430 Sunset Boulevard, West Hollywood, CA 90069, USA",
    "phone": "+1 323-848-5100",
    "$$hashKey": "056"
  },
  "114": {
    "position": {
      "lat": 32.7164841,
      "lng": -117.15992699999998
    },
    "title": "House of Blues",
    "city": "San Diego",
    "country": "",
    "region": "California",
    "type": "venue",
    "market": "San Diego",
    "category": "HOB Clubs",
    "capacity": 1100,
    "lnIntrest": "Operated",
    "symbol": "HOB",
    "links": [
      {
        "text": "",
        "href": "",
        "$$hashKey": "0LT"
      }
    ],
    "pictures": [
      "/Content/img/Map/Locations/hob-clubs/san-diego.jpg"
    ],
    "url": "http://www.houseofblues.com/sandiego",
    "address": "1065 5th Avenue, San Diego, CA 92101, USA",
    "phone": "+1 619-299-2583",
    "$$hashKey": "054"
  },
  "115": {
    "position": {
      "lat": 28.3703136,
      "lng": -81.52004
    },
    "title": "House of Blues",
    "city": "Lake Buena Vista",
    "country": "",
    "region": "Florida",
    "type": "venue",
    "market": "Orlando",
    "category": "HOB Clubs",
    "capacity": 2100,
    "lnIntrest": "Operated",
    "symbol": "HOB",
    "links": [
      {
        "text": "",
        "href": "",
        "$$hashKey": "0LQ"
      }
    ],
    "pictures": [
      "/Content/img/Map/Locations/hob-clubs/orlando.jpg"
    ],
    "url": "http://www.houseofblues.com/venues/clubvenues/orlando/",
    "address": "West Side, Orlando, FL 32836, USA",
    "phone": "+1 407-934-2583",
    "$$hashKey": "052"
  },
  "116": {
    "position": {
      "lat": 29.9533157,
      "lng": -90.06619999999998
    },
    "title": "House of Blues",
    "city": "New Orleans",
    "country": "",
    "region": "Louisiana",
    "type": "venue",
    "market": "New Orleans",
    "category": "HOB Clubs",
    "capacity": 1000,
    "lnIntrest": "Owned (1) / Operated (1)",
    "symbol": "HOB",
    "links": [
      {
        "text": "",
        "href": "",
        "$$hashKey": "0LN"
      }
    ],
    "pictures": [
      "/Content/img/Map/Locations/hob-clubs/new-orleans.jpg"
    ],
    "url": "http://www.houseofblues.com/venues/clubvenues/neworleans/",
    "address": "225 Decatur Street, New Orleans, LA 70130, USA",
    "phone": "+1 504-310-4999",
    "$$hashKey": "050"
  },
  "117": {
    "position": {
      "lat": 33.8008537,
      "lng": -78.7405243
    },
    "title": "House of Blues",
    "city": "N. Myrtle Beach",
    "country": "",
    "region": "South Carolina",
    "type": "venue",
    "market": "Myrtle Beach",
    "category": "HOB Clubs",
    "capacity": 2000,
    "lnIntrest": "Operated",
    "symbol": "HOB",
    "links": [
      {
        "text": "",
        "href": "",
        "$$hashKey": "0LK"
      }
    ],
    "pictures": [
      "/Content/img/Map/Locations/hob-clubs/myrtle-beach.jpg"
    ],
    "url": "http://www.houseofblues.com/myrtlebeach",
    "address": "Barefoot Landing, 4640 U.S. 17, North Myrtle Beach, SC 29582, USA",
    "phone": "+1 843-272-3000",
    "$$hashKey": "04Y"
  },
  "118": {
    "position": {
      "lat": 36.0931168,
      "lng": -115.17303500000003
    },
    "title": "House of Blues",
    "city": "Las Vegas",
    "country": "",
    "region": "Nevada",
    "type": "venue",
    "market": "Las Vegas",
    "category": "HOB Clubs",
    "capacity": 1800,
    "lnIntrest": "Operated",
    "symbol": "HOB",
    "links": [
      {
        "text": "",
        "href": "",
        "$$hashKey": "0LH"
      }
    ],
    "pictures": [
      "/Content/img/Map/Locations/hob-clubs/las-vegas.jpg"
    ],
    "url": "http://www.houseofblues.com/lasvegas",
    "address": "3932-3946 South Las Vegas Boulevard, Las Vegas, NV 89119, USA",
    "phone": "+1 702-632-7600",
    "$$hashKey": "04W"
  },
  "119": {
    "position": {
      "lat": 29.7545052,
      "lng": -95.36387000000002
    },
    "title": "House of Blues",
    "city": "Houston",
    "country": "",
    "region": "Texas",
    "type": "venue",
    "market": "Houston",
    "category": "HOB Clubs",
    "capacity": 1500,
    "lnIntrest": "Operated",
    "symbol": "HOB",
    "links": [
      {
        "text": "",
        "href": "",
        "$$hashKey": "0LE"
      }
    ],
    "pictures": [
      "/Content/img/Map/Locations/hob-clubs/houston.jpg"
    ],
    "url": "http://www.houseofblues.com/",
    "address": "1111 San Jacinto Street, Houston, TX 77002, USA",
    "phone": "+1 888-402-5837",
    "$$hashKey": "04U"
  },
  "120": {
    "position": {
      "lat": 32.78594,
      "lng": -96.80836
    },
    "title": "House of Blues",
    "city": "Dallas",
    "country": "",
    "region": "Texas",
    "type": "venue",
    "market": "Dallas",
    "category": "HOB Clubs",
    "capacity": 1600,
    "lnIntrest": "Operated",
    "symbol": "HOB",
    "links": [
      {
        "text": "",
        "href": "",
        "$$hashKey": "0LB"
      }
    ],
    "pictures": [
      "/Content/img/Map/Locations/hob-clubs/dallas.jpg"
    ],
    "url": "http://www.houseofblues.com/venues/clubvenues/dallas/",
    "address": "2201-2299 Laws Street, Dallas, TX 75202, USA",
    "phone": "+1 214-978-2583",
    "$$hashKey": "04S"
  },
  "121": {
    "position": {
      "lat": 41.49993,
      "lng": -81.69043999999997
    },
    "title": "House of Blues",
    "city": "Cleveland",
    "country": "",
    "region": "Ohio",
    "type": "venue",
    "market": "Cleveland",
    "category": "HOB Clubs",
    "capacity": 1200,
    "lnIntrest": "Operated",
    "symbol": "HOB",
    "links": [
      {
        "text": "",
        "href": "",
        "$$hashKey": "0L8"
      }
    ],
    "pictures": [
      "/Content/img/Map/Locations/hob-clubs/cleveland.jpg"
    ],
    "url": "http://www.houseofblues.com/cleveland",
    "address": "347 Euclid Avenue, Cleveland, OH 44114, USA",
    "phone": "+1 216-523-2583",
    "$$hashKey": "04Q"
  },
  "122": {
    "position": {
      "lat": 41.8884048,
      "lng": -87.62912
    },
    "title": "House of Blues",
    "city": "Chicago",
    "country": "",
    "region": "Illinois",
    "type": "venue",
    "market": "Chicago",
    "category": "HOB Clubs",
    "capacity": 1300,
    "lnIntrest": "Owned",
    "symbol": "HOB",
    "links": [
      {
        "text": "",
        "href": "",
        "$$hashKey": "0L5"
      }
    ],
    "pictures": [
      "/Content/img/Map/Locations/hob-clubs/chicago.jpg"
    ],
    "url": "http://www.houseofblues.com/venues/clubvenues/chicago/",
    "address": "333 North Dearborn Street, Chicago, IL 60654, USA",
    "phone": "+1 312-923-2000",
    "$$hashKey": "04O"
  },
  "123": {
    "position": {
      "lat": 42.34745,
      "lng": -71.09572000000003
    },
    "title": "House of Blues",
    "city": "Boston",
    "country": "",
    "region": "Massachusetts",
    "type": "venue",
    "market": "Boston",
    "category": "HOB Clubs",
    "capacity": 2400,
    "lnIntrest": "Operated",
    "symbol": "HOB",
    "links": [
      {
        "text": "",
        "href": "",
        "$$hashKey": "0L2"
      }
    ],
    "pictures": [
      "/Content/img/Map/Locations/hob-clubs/boston.jpg"
    ],
    "url": "http://www.houseofblues.com/boston/",
    "address": "15-27 Lansdowne Street, Boston, MA 02215, USA",
    "phone": "+1 888-693-2583",
    "$$hashKey": "04M"
  },
  "124": {
    "position": {
      "lat": 33.8103523,
      "lng": -117.923134
    },
    "title": "House of Blues",
    "city": "Anaheim",
    "country": "",
    "region": "California",
    "type": "venue",
    "market": "Los Angeles",
    "category": "HOB Clubs",
    "capacity": 1000,
    "lnIntrest": "Operated",
    "symbol": "HOB",
    "links": [
      {
        "text": "",
        "href": "",
        "$$hashKey": "0KZ"
      }
    ],
    "pictures": [
      "/Content/img/Map/Locations/hob-clubs/anaheim.jpg"
    ],
    "url": "http://www.houseofblues.com/anaheim",
    "address": "South West Street, Anaheim, CA 92802, USA",
    "phone": "+1 714-778-2583",
    "$$hashKey": "04K"
  },
  "125": {
    "position": {
      "lat": 51.46433,
      "lng": -0.9831920000000309
    },
    "title": "Little John's Farm",
    "city": "Reading",
    "country": "",
    "region": "England",
    "type": "venue",
    "market": "UK",
    "category": "Festival Sites",
    "capacity": "N/A",
    "lnIntrest": "Owned",
    "symbol": "LTL",
    "links": [
      {
        "text": "",
        "href": "",
        "$$hashKey": "0KW"
      }
    ],
    "pictures": [
      "/Content/img/Map/Locations/festival-sites/reading.jpg"
    ],
    "url": "",
    "address": "18 Richfield Avenue, Reading, Reading, Reading RG1 8PA, UK",
    "phone": "",
    "$$hashKey": "04I"
  },
  "126": {
    "position": {
      "lat": 53.8699379,
      "lng": -1.3812860000000455
    },
    "title": "Leeds Festival Site",
    "city": "Leeds",
    "country": "",
    "region": "England",
    "type": "venue",
    "market": "UK",
    "category": "Festival Sites",
    "capacity": "N/A",
    "lnIntrest": "Owned",
    "symbol": "LEE",
    "links": [
      {
        "text": "",
        "href": "",
        "$$hashKey": "0KT"
      }
    ],
    "pictures": [
      "/Content/img/Map/Locations/festival-sites/leeds.jpg"
    ],
    "url": "http://leedsfestival.com/",
    "address": "South Approach, Wetherby, West Yorkshire LS23, UK",
    "phone": "+44 20 7009 3001",
    "$$hashKey": "04G"
  },
  "127": {
    "position": {
      "lat": 40.06575,
      "lng": -81.01377000000002
    },
    "title": "Jamboree in the Hills Festival Site",
    "city": "Belmont",
    "country": "",
    "region": "Ohio",
    "type": "venue",
    "market": "Wheeling",
    "category": "Festival Sites",
    "capacity": "N/A",
    "lnIntrest": "Owned",
    "symbol": "JAM",
    "links": [
      {
        "text": "",
        "href": "",
        "$$hashKey": "0KQ"
      }
    ],
    "pictures": [
      "/Content/img/Map/Locations/festival-sites/jamboree-in-the-hills.jpg"
    ],
    "url": "http://www.jamboreeinthehills.com/",
    "address": "Interstate 70, Belmont, OH 43718, USA",
    "phone": "+1 800-624-5456",
    "$$hashKey": "04E"
  },
  "128": {
    "position": {
      "lat": 40.06575,
      "lng": -81.01377000000002
    },
    "title": "Jamboree in the Hills Festival Site",
    "city": "Belmont",
    "country": "",
    "region": "Ohio",
    "type": "venue",
    "market": "Wheeling",
    "category": "Festival Sites",
    "capacity": "N/A",
    "lnIntrest": "Owned",
    "symbol": "JAM",
    "links": [
      {
        "text": "",
        "href": "",
        "$$hashKey": "0KQ"
      }
    ],
    "pictures": [
      "/Content/img/Map/Locations/festival-sites/jamboree-in-the-hills.jpg"
    ],
    "url": "http://www.jamboreeinthehills.com/",
    "address": "Interstate 70, Belmont, OH 43718, USA",
    "phone": "+1 800-624-5456",
    "$$hashKey": "04E"
  },
  "129": {
    "position": {
      "lat": 56.2181129,
      "lng": -3.460277000000019
    },
    "title": "Balado Airfield (T in the Park)",
    "city": "Glasgow",
    "country": "",
    "region": "Scotland",
    "type": "venue",
    "market": "UK",
    "category": "Festival Sites",
    "capacity": "N/A",
    "lnIntrest": "Owned (1) / Operated (1)",
    "symbol": "AIR",
    "links": [
      {
        "text": "",
        "href": "",
        "$$hashKey": "0KN"
      }
    ],
    "pictures": [
      "/Content/img/Map/Locations/festival-sites/balado-airfield-t-in-the-park.jpg"
    ],
    "url": "",
    "address": "A91, Kinross, Perth and Kinross KY13 0RF, UK",
    "phone": "",
    "$$hashKey": "04C"
  },
  "130": {
    "position": {
      "lat": 39.94138,
      "lng": -75.14864
    },
    "title": "Theatre of the Living Arts",
    "city": "Philadelphia",
    "country": "",
    "region": "Pennsylvania",
    "type": "venue",
    "market": "Philadelphia",
    "category": "Clubs",
    "capacity": 800,
    "lnIntrest": "Owned",
    "symbol": "LVA",
    "links": [
      {
        "text": "",
        "href": "",
        "$$hashKey": "0KK"
      }
    ],
    "pictures": [
      "/Content/img/Map/Locations/clubs/theatre-of-the-living-arts.jpg"
    ],
    "url": "http://www.tlaphilly.com/",
    "address": "332 South Street, Philadelphia, PA 19147, USA",
    "phone": "+1 215-922-1011",
    "$$hashKey": "04A"
  },
  "131": {
    "position": {
      "lat": 42.3322678,
      "lng": -83.04137000000003
    },
    "title": "Saint Andrew's Hall",
    "city": "Detroit",
    "country": "",
    "region": "Michigan",
    "type": "venue",
    "market": "Detroit",
    "category": "Clubs",
    "capacity": 800,
    "lnIntrest": "Owned",
    "symbol": "STA",
    "links": [
      {
        "text": "",
        "href": "",
        "$$hashKey": "0KH"
      }
    ],
    "pictures": [
      "/Content/img/Map/Locations/clubs/st-andrews-hall.jpg"
    ],
    "url": "http://www.saintandrewsdetroit.com/",
    "address": "431 East Congress Street, Detroit, MI 48226, USA",
    "phone": "+1 313-961-8961",
    "$$hashKey": "048"
  },
  "132": {
    "position": {
      "lat": 37.7956123,
      "lng": -122.400261
    },
    "title": "Punch Line Comedy Club - San Francisco",
    "city": "San Francisco",
    "country": "",
    "region": "California",
    "type": "venue",
    "market": "San Francisco",
    "category": "Clubs",
    "capacity": 500,
    "lnIntrest": "Operated",
    "symbol": "PCH",
    "links": [
      {
        "text": "",
        "href": "",
        "$$hashKey": "0KE"
      }
    ],
    "pictures": [
      "/Content/img/Map/Locations/clubs/punchline-comedy-sf.jpg"
    ],
    "url": "http://www.punchlinecomedyclub.com/",
    "address": "450-498 Battery Street, San Francisco, CA 94111, USA",
    "phone": "+1 415-397-7573",
    "$$hashKey": "046"
  },
  "133": {
    "position": {
      "lat": 38.5952721,
      "lng": -121.41727400000002
    },
    "title": "Punch Line Comedy Club - Sacramento",
    "city": "Sacramento",
    "country": "",
    "region": "California",
    "type": "venue",
    "market": "Sacramento",
    "category": "Clubs",
    "capacity": 100,
    "lnIntrest": "Operated",
    "symbol": "PCH",
    "links": [
      {
        "text": "",
        "href": "",
        "$$hashKey": "0KB"
      }
    ],
    "pictures": [
      "/Content/img/Map/Locations/clubs/punchline-comedy-sacto.jpg"
    ],
    "url": "http://www.punchlinesac.com/",
    "address": "2100 Arden Way, Sacramento, CA 95825, USA",
    "phone": "+1 916-925-5500",
    "$$hashKey": "044"
  },
  "134": {
    "position": {
      "lat": 42.35208,
      "lng": -71.11954500000002
    },
    "title": "Paradise Rock Club",
    "city": "Boston",
    "country": "",
    "region": "Massachusetts",
    "type": "venue",
    "market": "Boston",
    "category": "Clubs",
    "capacity": 800,
    "lnIntrest": "Operated",
    "symbol": "PRC",
    "links": [
      {
        "text": "",
        "href": "",
        "$$hashKey": "0K8"
      }
    ],
    "pictures": [
      "/Content/img/Map/Locations/clubs/paradise-rock-club.jpg"
    ],
    "url": "http://www.thedise.com/",
    "address": "Boston University, 971 Commonwealth Avenue, Boston, MA 02215, USA",
    "phone": "+1 617-562-8800",
    "$$hashKey": "042"
  },
  "135": {
    "position": {
      "lat": 53.4025764,
      "lng": -2.9814420000000155
    },
    "title": "Nation",
    "city": "Liverpool",
    "country": "",
    "region": "England",
    "type": "venue",
    "market": "UK",
    "category": "Clubs",
    "capacity": 2900,
    "lnIntrest": "Operated",
    "symbol": "NAT",
    "links": [
      {
        "text": "",
        "href": "",
        "$$hashKey": "0K5"
      }
    ],
    "pictures": [
      "/Content/img/Map/Locations/clubs/nation.jpg"
    ],
    "url": "http://www.cream.co.uk/",
    "address": "36 Seel Street, Liverpool, Liverpool, Liverpool L1, UK",
    "phone": "+44 151 707 1309",
    "$$hashKey": "040"
  },
  "136": {
    "position": {
      "lat": 55.8626137,
      "lng": -4.2649730000000545
    },
    "title": "King Tut's Wah Wah Hut",
    "city": "Glasgow",
    "country": "",
    "region": "Scotland",
    "type": "venue",
    "market": "UK",
    "category": "Clubs",
    "capacity": 300,
    "lnIntrest": "Owned",
    "symbol": "WAH",
    "links": [
      {
        "text": "",
        "href": "",
        "$$hashKey": "0K2"
      }
    ],
    "pictures": [
      "/Content/img/Map/Locations/clubs/king-tuts-wah-wah-hut.jpg"
    ],
    "url": "http://www.kingtuts.co.uk/",
    "address": "272a Saint Vincent Street, Glasgow, Glasgow City G2 5RL, UK",
    "phone": "+44 141 221 5279",
    "$$hashKey": "03Y"
  },
  "137": {
    "position": {
      "lat": 40.73502,
      "lng": -73.98824000000002
    },
    "title": "Irving Plaza Powered by Klipsch",
    "city": "New York",
    "country": "",
    "region": "New York",
    "type": "venue",
    "market": "New York",
    "category": "Clubs",
    "capacity": 1000,
    "lnIntrest": "Operated",
    "symbol": "IVG",
    "links": [
      {
        "text": "",
        "href": "",
        "$$hashKey": "0JZ"
      }
    ],
    "pictures": [
      "/Content/img/Map/Locations/clubs/irving-plaza.jpg"
    ],
    "url": "http://www.livenation.com/venues/14084/irving-plaza-powered-by-klipsch-new-york",
    "address": "33 Irving Place, New York, NY 10003, USA",
    "phone": "+1 212-777-1224",
    "$$hashKey": "03W"
  },
  "138": {
    "position": {
      "lat": 40.7403,
      "lng": -73.98480999999998
    },
    "title": "Gramercy Theatre",
    "city": "New York",
    "country": "",
    "region": "New York",
    "type": "venue",
    "market": "New York",
    "category": "Clubs",
    "capacity": 600,
    "lnIntrest": "Operated",
    "symbol": "GRA",
    "links": [
      {
        "text": "",
        "href": "",
        "$$hashKey": "0JW"
      }
    ],
    "pictures": [
      "/Content/img/Map/Locations/clubs/gramercy.jpg"
    ],
    "url": "http://venue.thegramercytheatre.com/",
    "address": "130 East 24th Street, New York, NY 10010, USA",
    "phone": "+1 212-614-6932",
    "$$hashKey": "03U"
  },
  "139": {
    "position": {
      "lat": 49.2805023,
      "lng": -123.12078099999997
    },
    "title": "Commodore Ballroom",
    "city": "Vancouver",
    "country": "",
    "region": "British Columbia",
    "type": "venue",
    "market": "Vancouver",
    "category": "Clubs",
    "capacity": 1100,
    "lnIntrest": "Operated",
    "symbol": "CMB",
    "links": [
      {
        "text": "",
        "href": "",
        "$$hashKey": "0JT"
      }
    ],
    "pictures": [
      "/Content/img/Map/Locations/clubs/commodore-ballroom.jpg"
    ],
    "url": "http://www.commodoreballroom.com/",
    "address": "872 Granville Street, Vancouver, BC V6Z, Canada",
    "phone": "+1 604-739-4550",
    "$$hashKey": "03S"
  },
  "140": {
    "position": {
      "lat": 37.8030434,
      "lng": -122.414177
    },
    "title": "Cobb's Comedy Club",
    "city": "San Francisco",
    "country": "",
    "region": "California",
    "type": "venue",
    "market": "San Francisco",
    "category": "Clubs",
    "capacity": 200,
    "lnIntrest": "Operated",
    "symbol": "CBC",
    "links": [
      {
        "text": "",
        "href": "",
        "$$hashKey": "0JQ"
      }
    ],
    "pictures": [
      "/Content/img/Map/Locations/clubs/cobbs-comedy-club.jpg"
    ],
    "url": "http://www.cobbscomedyclub.com/index",
    "address": "905 Columbus Avenue, San Francisco, CA 94133, USA",
    "phone": "+1 415-928-4320",
    "$$hashKey": "03Q"
  },
  "141": {
    "position": {
      "lat": 42.35328,
      "lng": -71.13254999999998
    },
    "title": "Brighton Music Hall",
    "city": "Boston",
    "country": "",
    "region": "Massachusetts",
    "type": "venue",
    "market": "Boston",
    "category": "Clubs",
    "capacity": 300,
    "lnIntrest": "Operated",
    "symbol": "BMH",
    "links": [
      {
        "text": "",
        "href": "",
        "$$hashKey": "0JN"
      }
    ],
    "pictures": [
      "/Content/img/Map/Locations/clubs/brighton-music-hall.jpg"
    ],
    "url": "http://www.brightonmusichall.com/",
    "address": "91 Harvard Avenue, Allston, MA 02134, USA",
    "phone": "+1 617-779-0140",
    "$$hashKey": "03O"
  },
  "142": {
    "position": {
      "lat": 39.1299744,
      "lng": -84.50968999999998
    },
    "title": "Bogart's",
    "city": "Cincinnati",
    "country": "",
    "region": "Ohio",
    "type": "venue",
    "market": "Cincinnati",
    "category": "Clubs",
    "capacity": 1500,
    "lnIntrest": "Operated",
    "symbol": "BOG",
    "links": [
      {
        "text": "",
        "href": "",
        "$$hashKey": "0JK"
      }
    ],
    "pictures": [
      "/Content/img/Map/Locations/clubs/bogarts.jpg"
    ],
    "url": "http://www.bogarts.com/",
    "address": "2621 Vine Street, Cincinnati, OH 45219, USA",
    "phone": "+1 513-872-8801",
    "$$hashKey": "03M"
  },
  "143": {
    "position": {
      "lat": 52.31341,
      "lng": 4.936844999999948
    },
    "title": "Ziggo Dome",
    "city": "Amsterdam",
    "country": "",
    "region": "Netherlands",
    "type": "venue",
    "market": "Netherlands",
    "category": "Arenas",
    "capacity": 15700,
    "lnIntrest": "Operated",
    "symbol": "ZGO",
    "links": [
      {
        "text": "",
        "href": "",
        "$$hashKey": "0JH"
      }
    ],
    "pictures": [
      "/Content/img/Map/Locations/arenas/ziggo-dome.jpg"
    ],
    "url": "http://www.ziggodome.nl/",
    "address": "Holterbergweg 3, 1101 Amsterdam Zuid-Oost, Netherlands",
    "phone": "+31 900 2353663",
    "$$hashKey": "03K"
  },
  "144": {
    "position": {
      "lat": 53.347477,
      "lng": -6.228471000000013
    },
    "title": "3 Arena",
    "city": "Dublin",
    "country": "",
    "region": "Ireland",
    "type": "venue",
    "market": "Ireland",
    "category": "Arenas",
    "capacity": 13000,
    "lnIntrest": "Owned",
    "symbol": "3A",
    "links": [
      {
        "text": "",
        "href": "",
        "$$hashKey": "0JE"
      }
    ],
    "pictures": [
      "/Content/img/Map/Locations/arenas/o2-dublin.jpg"
    ],
    "url": "http://www.3arena.ie/",
    "address": "North Wall Quay, Dublin, Ireland",
    "phone": "+353 1 819 8888",
    "$$hashKey": "03I"
  },
  "145": {
    "position": {
      "lat": 45.0236053,
      "lng": 7.669071000000031
    },
    "title": "Palavela",
    "city": "Turin",
    "country": "",
    "region": "Italy",
    "type": "venue",
    "market": "Italy",
    "category": "Arenas",
    "capacity": 8300,
    "lnIntrest": "Operated",
    "symbol": "PAV",
    "links": [
      {
        "text": "",
        "href": "",
        "$$hashKey": "0JB"
      }
    ],
    "pictures": [
      "/Content/img/Map/Locations/arenas/palavela.jpg"
    ],
    "url": "http://www.palavelatorino.it/",
    "address": "Via Ventimiglia, 152, 10127 Torino, Italy",
    "phone": "+39 011 051 9775",
    "$$hashKey": "03G"
  },
  "146": {
    "position": {
      "lat": 45.0411224,
      "lng": 7.65175099999999
    },
    "title": "Palasport Olimpico",
    "city": "Turin",
    "country": "",
    "region": "Italy",
    "type": "venue",
    "market": "Italy",
    "category": "Arenas",
    "capacity": 12500,
    "lnIntrest": "Operated",
    "symbol": "PLO",
    "links": [
      {
        "text": "",
        "href": "",
        "$$hashKey": "0J8"
      }
    ],
    "pictures": [
      "/Content/img/Map/Locations/arenas/palasport-olimpico.jpg"
    ],
    "url": "http://www.parcolimpicotorino.it/",
    "address": "Corso Sebastopoli, 123, 10134 Torino, Italy",
    "phone": "+39 011 616 4963",
    "$$hashKey": "03E"
  },
  "147": {
    "position": {
      "lat": 51.47927,
      "lng": -3.1717479999999796
    },
    "title": "Motorpoint Arena Cardiff",
    "city": "Cardiff",
    "country": "",
    "region": "Wales",
    "type": "venue",
    "market": "UK",
    "category": "Arenas",
    "capacity": 6700,
    "lnIntrest": "Operated",
    "symbol": "MPA",
    "links": [
      {
        "text": "",
        "href": "",
        "$$hashKey": "0J5"
      }
    ],
    "pictures": [
      "/Content/img/Map/Locations/arenas/motorpoint-arena-cardiff.jpg"
    ],
    "url": "http://www.livenation.co.uk/cardiff",
    "address": "7 David Street, Cardiff, Cardiff, Cardiff CF10, UK",
    "phone": "+44 29 2023 4500",
    "$$hashKey": "03C"
  },
  "148": {
    "position": {
      "lat": 53.400322,
      "lng": -1.4187839999999596
    },
    "title": "Motorpoint Arena",
    "city": "Sheffield",
    "country": "",
    "region": "England",
    "type": "venue",
    "market": "UK",
    "category": "Arenas",
    "capacity": 11300,
    "lnIntrest": "Operated",
    "symbol": "MPA",
    "links": [
      {
        "text": "",
        "href": "",
        "$$hashKey": "0J2"
      }
    ],
    "pictures": [
      "/Content/img/Map/Locations/arenas/motorpoint-arena.jpg"
    ],
    "url": "http://www.motorpointarenasheffield.co.uk",
    "address": "Terry Street, Sheffield, South Yorkshire S9 2BU, UK",
    "phone": "+44 114 256 5656",
    "$$hashKey": "03A"
  },
  "149": {
    "position": {
      "lat": 52.31265,
      "lng": 4.94379200000003
    },
    "title": "Heineken Music Hall",
    "city": "Amsterdam",
    "country": "",
    "region": "Netherlands",
    "type": "venue",
    "market": "Netherlands",
    "category": "Arenas",
    "capacity": 5500,
    "lnIntrest": "Operated",
    "symbol": "HMH",
    "links": [
      {
        "text": "",
        "href": "",
        "$$hashKey": "0IZ"
      }
    ],
    "pictures": [
      "/Content/img/Map/Locations/arenas/heineken-music-hall.jpg"
    ],
    "url": "http://www.heineken-music-hall.nl/",
    "address": "ArenA Boulevard 600, 1101 Amsterdam, Netherlands",
    "phone": "+31 900 6874242",
    "$$hashKey": "038"
  },
  "150": {
    "position": {
      "lat": 37.80449,
      "lng": -122.39890000000003
    },
    "title": "America's Cup Pavilion",
    "city": "San Francisco",
    "country": "",
    "region": "California",
    "type": "venue",
    "market": "San Francisco",
    "category": "Arenas",
    "capacity": 9000,
    "lnIntrest": "Operated",
    "symbol": "ACP",
    "links": [
      {
        "text": "",
        "href": "",
        "$$hashKey": "0IW"
      }
    ],
    "pictures": [
      "/Content/img/Map/Locations/arenas/americas-cup-pavillion.jpg"
    ],
    "url": "",
    "address": "Pier 23 The Embarcadero, San Francisco, CA 94111, USA",
    "phone": "",
    "$$hashKey": "036"
  },
  "151": {
    "position": {
      "lat": 47.2373466,
      "lng": -122.11136599999998
    },
    "title": "White River Amphitheatre",
    "city": "Auburn",
    "country": "",
    "region": "Washington",
    "type": "venue",
    "market": "Seattle",
    "category": "Amphitheaters",
    "capacity": 20000,
    "lnIntrest": "Operated",
    "symbol": "WRA",
    "links": [
      {
        "text": "",
        "href": "",
        "$$hashKey": "0IT"
      }
    ],
    "pictures": [
      "/Content/img/Map/Locations/amphitheaters/wra.jpg"
    ],
    "url": "http://www.livenationvenue.com/white-river-amphitheatre",
    "address": "40601 Auburn Enumclaw Road Southeast, Auburn, WA 98092, USA",
    "phone": "+1 360-825-6200",
    "$$hashKey": "034"
  },
  "152": {
    "position": {
      "lat": 35.3275452,
      "lng": -80.7110748
    },
    "title": "PNC Music Pavilion",
    "city": "Charlotte",
    "country": "",
    "region": "North Carolina",
    "type": "venue",
    "market": "Charlotte",
    "category": "Amphitheaters",
    "capacity": 18800,
    "lnIntrest": "Owned",
    "symbol": "PNC",
    "links": [
      {
        "text": "",
        "href": "",
        "$$hashKey": "0IQ"
      }
    ],
    "pictures": [
      "/Content/img/Map/Locations/amphitheaters/vwa3.jpg"
    ],
    "url": "http://www.livenation.com/venues/14471/pnc-music-pavilion",
    "address": "707 Pavilion Boulevard, Charlotte, NC 28262, USA",
    "phone": "+1 704-549-5555",
    "$$hashKey": "032"
  },
  "153": {
    "position": {
      "lat": 38.7444458,
      "lng": -90.46971000000002
    },
    "title": "Hollywood Casino Amphitheater",
    "city": "Maryland Heights",
    "country": "",
    "region": "Missouri",
    "type": "venue",
    "market": "St. Louis",
    "category": "Amphitheaters",
    "capacity": 21000,
    "lnIntrest": "Owned",
    "symbol": "HCA",
    "links": [
      {
        "text": "",
        "href": "",
        "$$hashKey": "0IN"
      }
    ],
    "pictures": [
      "/Content/img/Map/Locations/amphitheaters/vwa1.jpg"
    ],
    "url": "http://www.livenation.com/venues/14396/hollywood-casino-amphitheatre-st-louis-mo",
    "address": "14141 Riverport Drive, Maryland Heights, MO 63043, USA",
    "phone": "+1 314-298-9944",
    "$$hashKey": "030"
  },
  "154": {
    "position": {
      "lat": 33.63792,
      "lng": -117.75029999999998
    },
    "title": "Verizon Wireless Amphitheater",
    "city": "Irvine",
    "country": "",
    "region": "California",
    "type": "venue",
    "market": "Los Angeles",
    "category": "Amphitheaters",
    "capacity": 16300,
    "lnIntrest": "Operated",
    "symbol": "VWA",
    "links": [
      {
        "text": "",
        "href": "",
        "$$hashKey": "0IK"
      }
    ],
    "pictures": [
      "/Content/img/Map/Locations/amphitheaters/vwa.jpg"
    ],
    "url": "http://www.livenation.com/venues/14469/verizon-wireless-amphitheater-irvine",
    "address": "8800 Irvine Center Drive, Irvine, CA 92603, USA",
    "phone": "+1 949-860-2080",
    "$$hashKey": "02Y"
  },
  "155": {
    "position": {
      "lat": 35.2391853,
      "lng": -80.84550480000001
    },
    "title": "Uptown Amphitheatre at the NC Music Factory",
    "city": "Charlotte",
    "country": "",
    "region": "North Carolina",
    "type": "venue",
    "market": "Charlotte",
    "category": "Amphitheaters",
    "capacity": 5000,
    "lnIntrest": "Operated",
    "symbol": "UPA",
    "links": [
      {
        "text": "",
        "href": "",
        "$$hashKey": "0IH"
      }
    ],
    "pictures": [
      "/Content/img/Map/Locations/amphitheaters/upa.jpg"
    ],
    "url": "http://www.livenation.com/uptown-amphitheatre-tickets-charlotte/venue/115656",
    "address": "1000 North Carolina Music Factory Boulevard, Charlotte, NC 28206, USA",
    "phone": "+1 704-549-5555",
    "$$hashKey": "02W"
  },
  "156": {
    "position": {
      "lat": 41.3480339,
      "lng": -75.66389470000001
    },
    "title": "Toyota Pavilion at Montage Mountain ",
    "city": "Scranton",
    "country": "",
    "region": "Pennsylvania",
    "type": "venue",
    "market": "Scranton",
    "category": "Amphitheaters",
    "capacity": 17500,
    "lnIntrest": "Operated",
    "symbol": "TYP",
    "links": [
      {
        "text": "",
        "href": "",
        "$$hashKey": "0IE"
      }
    ],
    "pictures": [
      "/Content/img/Map/Locations/amphitheaters/typ.jpg"
    ],
    "url": "http://www.livenation.com/venues/14507/the-pavilion-at-montage-mountain",
    "address": "1000 Montage Mountain Road, Scranton, PA 18507, USA",
    "phone": "+1 570-961-9000",
    "$$hashKey": "02U"
  },
  "157": {
    "position": {
      "lat": 35.7495842,
      "lng": -78.5762939
    },
    "title": "Coastal Credit Union Music Park at Walnut Creek",
    "city": "Raleigh",
    "country": "",
    "region": "North Carolina",
    "type": "venue",
    "market": "Raleigh-Durham",
    "category": "Amphitheaters",
    "capacity": 20000,
    "lnIntrest": "Operated",
    "symbol": "WCA",
    "links": [
      {
        "text": "",
        "href": "",
        "$$hashKey": "0IB"
      }
    ],
    "pictures": [
      "/Content/img/Map/Locations/amphitheaters/twc.jpg"
    ],
    "url": "http://www.livenation.com/venues/14476/coastal-credit-union-music-park-at-walnut-creek",
    "address": "3801 Rock Quarry Road, Raleigh, NC 27610, USA",
    "phone": "+1 919-719-5500",
    "$$hashKey": "02S"
  },
  "158": {
    "position": {
      "lat": 47.1013527,
      "lng": -119.99567400000001
    },
    "title": "The Gorge Amphitheatre",
    "city": "Quincy",
    "country": "",
    "region": "Washington",
    "type": "venue",
    "market": "Yakima",
    "category": "Amphitheaters",
    "capacity": 20000,
    "lnIntrest": "Operated",
    "symbol": "TGA",
    "links": [
      {
        "text": "",
        "href": "",
        "$$hashKey": "0I8"
      }
    ],
    "pictures": [
      "/Content/img/Map/Locations/amphitheaters/tga.jpg"
    ],
    "url": "http://www.livenationvenue.com/gorge-amphitheatre",
    "address": "Gorge Amphitheater Trail, Quincy, WA 98848, USA",
    "phone": "+1 509-785-6262",
    "$$hashKey": "02Q"
  },
  "159": {
    "position": {
      "lat": 39.94118,
      "lng": -75.13049999999998
    },
    "title": "Susquehanna Bank Center ",
    "city": "Camden",
    "country": "",
    "region": "New Jersey",
    "type": "venue",
    "market": "Philadelphia",
    "category": "Amphitheaters",
    "capacity": 25000,
    "lnIntrest": "Operated",
    "symbol": "SBC",
    "links": [
      {
        "text": "",
        "href": "",
        "$$hashKey": "0I5"
      }
    ],
    "pictures": [
      "/Content/img/Map/Locations/amphitheaters/sbc.jpg"
    ],
    "url": "http://www.livenationvenue.com/susquehanna-bank-center",
    "address": "1 Harbour Blvd, Camden, NJ 08103",
    "phone": "+1 856-365-1300",
    "$$hashKey": "02O"
  },
  "160": {
    "position": {
      "lat": 37.95921,
      "lng": -121.938263
    },
    "title": "Concord Pavilion",
    "city": "Concord",
    "country": "",
    "region": "California",
    "type": "venue",
    "market": "San Francisco",
    "category": "Amphitheaters",
    "capacity": 12500,
    "lnIntrest": "Operated",
    "symbol": "CCP",
    "links": [
      {
        "text": "",
        "href": "",
        "$$hashKey": "0I2"
      }
    ],
    "pictures": [
      "/Content/img/Map/Locations/amphitheaters/stp.jpg"
    ],
    "url": "http://www.livenation.com/venues/14806/concord-pavilion",
    "address": "2000 Kirker Pass Road, Concord, CA 94521, USA",
    "phone": "+1 925-676-8742",
    "$$hashKey": "02M"
  },
  "161": {
    "position": {
      "lat": 39.0313721,
      "lng": -121.51300800000001
    },
    "title": "Sleep Train Amphitheatre",
    "city": "Wheatland",
    "country": "",
    "region": "California",
    "type": "venue",
    "market": "Sacramento",
    "category": "Amphitheaters",
    "capacity": 18500,
    "lnIntrest": "Owned",
    "symbol": "STA",
    "links": [
      {
        "text": "",
        "href": "",
        "$$hashKey": "0HZ"
      }
    ],
    "pictures": [
      "/Content/img/Map/Locations/amphitheaters/staw.jpg"
    ],
    "url": "http://www.livenation.com/venues/14998/sleep-train-amphitheatre-in-wheatland",
    "address": "2677 Forty Mile Road, Wheatland, CA 95692, USA",
    "phone": "+1 530-743-5200",
    "$$hashKey": "02K"
  },
  "162": {
    "position": {
      "lat": 32.5880356,
      "lng": -117.006126
    },
    "title": "Sleep Train Amphitheatre",
    "city": "Chula Vista",
    "country": "",
    "region": "California",
    "type": "venue",
    "market": "San Diego",
    "category": "Amphitheaters",
    "capacity": 19500,
    "lnIntrest": "Operated",
    "symbol": "STA",
    "links": [
      {
        "text": "",
        "href": "",
        "$$hashKey": "0HW"
      }
    ],
    "pictures": [
      "/Content/img/Map/Locations/amphitheaters/stac.jpg"
    ],
    "url": "http://www.livenation.com/venues/14468/sleep-train-amphitheatre-in-chula-vista",
    "address": "2050 Entertainment Circle, Chula Vista, CA 91911, USA",
    "phone": "+1 619-671-3500",
    "$$hashKey": "02I"
  },
  "163": {
    "position": {
      "lat": 37.42695,
      "lng": -122.08067299999999
    },
    "title": "Shoreline Amphitheatre",
    "city": "Mountain View",
    "country": "",
    "region": "California",
    "type": "venue",
    "market": "San Francisco",
    "category": "Amphitheaters",
    "capacity": 22000,
    "lnIntrest": "Operated",
    "symbol": "SHA",
    "links": [
      {
        "text": "",
        "href": "",
        "$$hashKey": "0HT"
      }
    ],
    "pictures": [
      "/Content/img/Map/Locations/amphitheaters/sha.jpg"
    ],
    "url": "http://www.livenation.com/#/venues/14489/shoreline-amphitheatre",
    "address": "1 Amphitheatre Parkway, Mountain View, CA 94043, USA",
    "phone": "+1 650-967-3000",
    "$$hashKey": "02G"
  },
  "164": {
    "position": {
      "lat": 43.0552979,
      "lng": -73.80582429999998
    },
    "title": "Saratoga Performing Arts Center",
    "city": "Saratoga Springs",
    "country": "",
    "region": "New York",
    "type": "venue",
    "market": "Albany",
    "category": "Amphitheaters",
    "capacity": 25200,
    "lnIntrest": "Operated",
    "symbol": "SPA",
    "links": [
      {
        "text": "",
        "href": "",
        "$$hashKey": "0HQ"
      }
    ],
    "pictures": [
      "/Content/img/Map/Locations/amphitheaters/spa.jpg"
    ],
    "url": "http://www.livenation.com/venues/14310/saratoga-performing-arts-center-spac",
    "address": "108 Avenue of the Pines, Saratoga Springs, NY 12866, USA",
    "phone": "+1 518-584-9330",
    "$$hashKey": "02E"
  },
  "165": {
    "position": {
      "lat": 34.204464,
      "lng": -117.40196200000003
    },
    "title": "San Manuel Amphitheater",
    "city": "San Bernardino",
    "country": "",
    "region": "California",
    "type": "venue",
    "market": "Los Angeles",
    "category": "Amphitheaters",
    "capacity": 65000,
    "lnIntrest": "Operated",
    "symbol": "SMA",
    "links": [
      {
        "text": "",
        "href": "",
        "$$hashKey": "0HN"
      }
    ],
    "pictures": [
      "/Content/img/Map/Locations/amphitheaters/sma.jpg"
    ],
    "url": "http://www.livenation.com/venues/14768/san-manuel-amphitheater",
    "address": "2575 Glen Helen Parkway, Devore Heights, CA 92407, USA",
    "phone": "+1 909-880-6500",
    "$$hashKey": "02C"
  },
  "166": {
    "position": {
      "lat": 39.94747,
      "lng": -75.13959499999999
    },
    "title": "River Stage at Great Plaza - Penn's Landing",
    "city": "Philadelphia",
    "country": "",
    "region": "Pennsylvania",
    "type": "venue",
    "market": "Philadelphia",
    "category": "Amphitheaters",
    "capacity": 3500,
    "lnIntrest": "Operated",
    "symbol": "GPL",
    "links": [
      {
        "text": "",
        "href": "",
        "$$hashKey": "0HK"
      }
    ],
    "pictures": [
      "/Content/img/Map/Locations/amphitheaters/gpl.jpg"
    ],
    "url": "",
    "address": "121 South Columbus Boulevard, Philadelphia, PA 19106, USA",
    "phone": "",
    "$$hashKey": "02A"
  },
  "167": {
    "position": {
      "lat": 40.3936958,
      "lng": -74.17557
    },
    "title": "PNC Bank Arts Center",
    "city": "Holmdel",
    "country": "",
    "region": "New Jersey",
    "type": "venue",
    "market": "New York",
    "category": "Amphitheaters",
    "capacity": 17500,
    "lnIntrest": "Operated",
    "symbol": "PNC",
    "links": [
      {
        "text": "",
        "href": "",
        "$$hashKey": "0HH"
      }
    ],
    "pictures": [
      "/Content/img/Map/Locations/amphitheaters/pnc.jpg"
    ],
    "url": "http://www.livenation.com/venues/14235/pnc-bank-arts-center",
    "address": "116 Garden State Parkway, Holmdel, NJ 07733, USA",
    "phone": "+1 732-203-2500",
    "$$hashKey": "028"
  },
  "168": {
    "position": {
      "lat": 33.331665,
      "lng": -86.78471000000002
    },
    "title": "Oak Mountain Amphitheatre",
    "city": "Pelham",
    "country": "",
    "region": "Alabama",
    "type": "venue",
    "market": "Birmingham",
    "category": "Amphitheaters",
    "capacity": 10600,
    "lnIntrest": "Owned",
    "symbol": "OMA",
    "links": [
      {
        "text": "",
        "href": "",
        "$$hashKey": "0HE"
      }
    ],
    "pictures": [
      "/Content/img/Map/Locations/amphitheaters/oma.jpg"
    ],
    "url": "http://www.theoakmountainamphitheater.com/",
    "address": "230-298 Amphitheater Road, Pelham, AL 35124, USA",
    "phone": "+1 205-985-0703",
    "$$hashKey": "026"
  },
  "169": {
    "position": {
      "lat": 40.601532,
      "lng": -73.50236510000002
    },
    "title": "Northwell Health at Jones Beach Theater",
    "city": "Wantagh",
    "country": "",
    "region": "New York",
    "type": "venue",
    "market": "New York",
    "category": "Amphitheaters",
    "capacity": 14400,
    "lnIntrest": "Operated",
    "symbol": "JBT",
    "links": [
      {
        "text": "",
        "href": "",
        "$$hashKey": "0HB"
      }
    ],
    "pictures": [
      "/Content/img/Map/Locations/amphitheaters/jbt.jpg"
    ],
    "url": "http://www.livenation.com/venues/14252/northwell-health-at-jones-beach-theater",
    "address": "1000 Ocean Parkway, Wantagh, NY 11793, USA",
    "phone": "+1 516-221-1000",
    "$$hashKey": "024"
  },
  "170": {
    "position": {
      "lat": 43.62944,
      "lng": -79.41502000000003
    },
    "title": "Molson Canadian Amphitheatre",
    "city": "Toronto",
    "country": "",
    "region": "Ontario",
    "type": "venue",
    "market": "Toronto",
    "category": "Amphitheaters",
    "capacity": 16000,
    "lnIntrest": "Operated",
    "symbol": "MCA",
    "links": [
      {
        "text": "",
        "href": "",
        "$$hashKey": "0H8"
      }
    ],
    "pictures": [
      "/Content/img/Map/Locations/amphitheaters/mca.jpg"
    ],
    "url": "http://www.canadianamphitheatre.net/",
    "address": "909 Lake Shore Boulevard West, Toronto, ON M6K 3L3, Canada",
    "phone": "+1 416-260-5600",
    "$$hashKey": "022"
  },
  "171": {
    "position": {
      "lat": 27.9937954,
      "lng": -82.36465450000003
    },
    "title": "MidFlorida Credit Union Amphitheatre at the Florida State Fairgrounds",
    "city": "Tampa",
    "country": "",
    "region": "Florida",
    "type": "venue",
    "market": "Tampa",
    "category": "Amphitheaters",
    "capacity": 20000,
    "lnIntrest": "Operated",
    "symbol": "FSF",
    "links": [
      {
        "text": "",
        "href": "",
        "$$hashKey": "0H5"
      }
    ],
    "pictures": [
      "/Content/img/Map/Locations/amphitheaters/fsf.jpg"
    ],
    "url": "http://www.livenation.com/venues/14473/midflorida-credit-union-amphitheatre-at-the-fl-state-fairgrounds",
    "address": "4802 US Hwy 301 N Tampa, FL 33610",
    "phone": " +1 813-740-2446",
    "$$hashKey": "020"
  },
  "172": {
    "position": {
      "lat": 27.9937954,
      "lng": -82.36465450000003
    },
    "title": "MidFlorida Credit Union Amphitheatre at the Florida State Fairgrounds",
    "city": "Tampa",
    "country": "",
    "region": "Florida",
    "type": "venue",
    "market": "Tampa",
    "category": "Amphitheaters",
    "capacity": 20000,
    "lnIntrest": "Operated",
    "symbol": "FSF",
    "links": [
      {
        "text": "",
        "href": "",
        "$$hashKey": "0H5"
      }
    ],
    "pictures": [
      "/Content/img/Map/Locations/amphitheaters/fsf.jpg"
    ],
    "url": "http://www.livenation.com/venues/14473/midflorida-credit-union-amphitheatre-at-the-fl-state-fairgrounds",
    "address": "4802 US Hwy 301 N Tampa, FL 33610",
    "phone": " +1 813-740-2446",
    "$$hashKey": "020"
  },
  "173": {
    "position": {
      "lat": 40.0054626,
      "lng": -85.93098450000002
    },
    "title": "Klipsch Music Center",
    "city": "Noblesville",
    "country": "",
    "region": "Indiana",
    "type": "venue",
    "market": "Indianapolis",
    "category": "Amphitheaters",
    "capacity": 24400,
    "lnIntrest": "Owned",
    "symbol": "KMC",
    "links": [
      {
        "text": "",
        "href": "",
        "$$hashKey": "0H2"
      }
    ],
    "pictures": [
      "/Content/img/Map/Locations/amphitheaters/kmc.jpg"
    ],
    "url": "http://www.livenation.com/#/venues/14412/klipsch-music-center",
    "address": "12880 East 146th Street, Noblesville, IN 46060, USA",
    "phone": "+1 317-776-8181",
    "$$hashKey": "01Y"
  },
  "174": {
    "position": {
      "lat": 25.7763615,
      "lng": -80.18610380000001
    },
    "title": "Klipsch Amphitheater at Bayfront Park",
    "city": "Miami",
    "country": "",
    "region": "Florida",
    "type": "venue",
    "market": "Miami",
    "category": "Amphitheaters",
    "capacity": 5000,
    "lnIntrest": "Operated",
    "symbol": "KAB",
    "links": [
      {
        "text": "",
        "href": "",
        "$$hashKey": "0GZ"
      }
    ],
    "pictures": [
      "/Content/img/Map/Locations/amphitheaters/kab.jpg"
    ],
    "url": "http://www.bayfrontparkmiami.com/",
    "address": "301 North Biscayne Boulevard, Miami, Florida 33132",
    "phone": "+1 305-358-7550",
    "$$hashKey": "01W"
  },
  "175": {
    "position": {
      "lat": 38.7856255,
      "lng": -77.58988
    },
    "title": "Jiffy Lube Live",
    "city": "Bristow",
    "country": "",
    "region": "Virginia",
    "type": "venue",
    "market": "Washington DC",
    "category": "Amphitheaters",
    "capacity": 22500,
    "lnIntrest": "Owned",
    "symbol": "JLL",
    "links": [
      {
        "text": "",
        "href": "",
        "$$hashKey": "0GW"
      }
    ],
    "pictures": [
      "/Content/img/Map/Locations/amphitheaters/jll.jpg"
    ],
    "url": "http://www.livenation.com/venues/14407/jiffy-lube-live",
    "address": "7811 Cellar Door Drive, Gainesville, VA 20155, USA",
    "phone": "+1 703-754-6400",
    "$$hashKey": "01U"
  },
  "176": {
    "position": {
      "lat": 34.998333,
      "lng": -106.63062300000001
    },
    "title": "Isleta Amphitheater",
    "city": "Albuquerque",
    "country": "",
    "region": "New Mexico",
    "type": "venue",
    "market": "Albuquerque",
    "category": "Amphitheaters",
    "capacity": 12000,
    "lnIntrest": "Operated",
    "symbol": "ILA",
    "links": [
      {
        "text": "",
        "href": "",
        "$$hashKey": "0GT"
      }
    ],
    "pictures": [
      "/Content/img/Map/Locations/amphitheaters/ila.jpg"
    ],
    "url": "http://www.livenation.com/venues/14579/isleta-amphitheater",
    "address": "5601 University Boulevard Southeast, Albuquerque, NM 87106, USA",
    "phone": "+1 505-452-5100",
    "$$hashKey": "01S"
  },
  "177": {
    "position": {
      "lat": 32.77571,
      "lng": -96.75632000000002
    },
    "title": "Gexa Energy Pavilion",
    "city": "Dallas",
    "country": "",
    "region": "Texas",
    "type": "venue",
    "market": "Dallas",
    "category": "Amphitheaters",
    "capacity": 20100,
    "lnIntrest": "Operated",
    "symbol": "GEP",
    "links": [
      {
        "text": "",
        "href": "",
        "$$hashKey": "0GQ"
      }
    ],
    "pictures": [
      "/Content/img/Map/Locations/amphitheaters/gep.jpg"
    ],
    "url": "http://www.livenationvenue.com/gexa-energy-pavilion",
    "address": "3839 S. Fitzhugh Ave, Dallas, TX 75210",
    "phone": "+1 214-421-1111",
    "$$hashKey": "01Q"
  },
  "178": {
    "position": {
      "lat": 41.86452,
      "lng": -87.60910000000001
    },
    "title": "FirstMerit Bank Pavilion at Northerly Island",
    "city": "Chicago",
    "country": "",
    "region": "Illinois",
    "type": "venue",
    "market": "Chicago",
    "category": "Amphitheaters",
    "capacity": 8500,
    "lnIntrest": "Operated",
    "symbol": "FBP",
    "links": [
      {
        "text": "",
        "href": "",
        "$$hashKey": "0GN"
      }
    ],
    "pictures": [
      "/Content/img/Map/Locations/amphitheaters/fbp.jpg"
    ],
    "url": "http://www.livenation.com/#/venues/14638/firstmerit-bank-pavilion-at-northerly-island",
    "address": "1300 South Linn White Drive Chicago, IL  60605",
    "phone": "+1 312-540-2668",
    "$$hashKey": "01O"
  },
  "179": {
    "position": {
      "lat": 40.4204865,
      "lng": -80.43408999999997
    },
    "title": "KeyBank Pavilion",
    "city": "Burgettstown",
    "country": "",
    "region": "Pennsylvania",
    "type": "venue",
    "market": "Pittsburgh",
    "category": "Amphitheaters",
    "capacity": 23100,
    "lnIntrest": "Operated",
    "symbol": "FNP",
    "links": [
      {
        "text": "",
        "href": "",
        "$$hashKey": "0GK"
      }
    ],
    "pictures": [
      "/Content/img/Map/Locations/amphitheaters/fnp.jpg"
    ],
    "url": "http://www.keybankpav.com/",
    "address": "665 Pennsylvania 18, Burgettstown, PA 15021, USA",
    "phone": "+1 724-947-7400",
    "$$hashKey": "01M"
  },
  "180": {
    "position": {
      "lat": 41.5444,
      "lng": -87.77573999999998
    },
    "title": "First Midwest Bank Amphitheatre",
    "city": "Tinley Park",
    "country": "",
    "region": "Illinois",
    "type": "venue",
    "market": "Chicago",
    "category": "Amphitheaters",
    "capacity": 28600,
    "lnIntrest": "Owned",
    "symbol": "FMB",
    "links": [
      {
        "text": "",
        "href": "",
        "$$hashKey": "0GH"
      }
    ],
    "pictures": [
      "/Content/img/Map/Locations/amphitheaters/fmb.jpg"
    ],
    "url": "http://www.livenation.com/#/venues/14482/first-midwest-bank-amphitheatre",
    "address": "19100 South Ridgeland Avenue, Tinley Park, IL 60477, USA",
    "phone": "+1 708-614-1616",
    "$$hashKey": "01K"
  },
  "181": {
    "position": {
      "lat": 39.96018,
      "lng": -75.13734999999997
    },
    "title": "Festival Pier at Penn's Landing",
    "city": "Philadelphia",
    "country": "",
    "region": "Pennsylvania",
    "type": "venue",
    "market": "Philadelphia",
    "category": "Amphitheaters",
    "capacity": 6500,
    "lnIntrest": "Operated",
    "symbol": "FPL",
    "links": [
      {
        "text": "",
        "href": "",
        "$$hashKey": "0GE"
      }
    ],
    "pictures": [
      "/Content/img/Map/Locations/amphitheaters/fpl.jpg"
    ],
    "url": "http://www.festivalpierphilly.com",
    "address": "624 North Columbus Boulevard, Philadelphia, PA 19123, USA",
    "phone": "+1 215-922-1011",
    "$$hashKey": "01I"
  },
  "182": {
    "position": {
      "lat": 36.7698631,
      "lng": -76.10136
    },
    "title": "Farm Bureau Live at Virginia Beach",
    "city": "Virginia Beach",
    "country": "",
    "region": "Virginia",
    "type": "venue",
    "market": "Virginia Beach",
    "category": "Amphitheaters",
    "capacity": 20000,
    "lnIntrest": "Operated",
    "symbol": "FBV",
    "links": [
      {
        "text": "",
        "href": "",
        "$$hashKey": "0GB"
      }
    ],
    "pictures": [
      "/Content/img/Map/Locations/amphitheaters/fbv.jpg"
    ],
    "url": "http://www.livenation.com/venues/14474/farm-bureau-live-at-virginia-beach",
    "address": "3550 Cellar Door Way, Virginia Beach, VA 23456, USA",
    "phone": "+1 757-368-3000",
    "information": "Office hours:<br />Monday-Friday 9:00am-5:00pm<br /><br />Box Office Hours:<br />Monday-Friday 10:00am-4:00pm",
    "$$hashKey": "01G"
  },
  "183": {
    "position": {
      "lat": 42.9263954,
      "lng": -78.38615419999996
    },
    "title": "Darien Lake Performing Arts Center",
    "city": "Darien Center",
    "country": "",
    "region": "New York",
    "type": "venue",
    "market": "Buffalo",
    "category": "Amphitheaters",
    "capacity": 21800,
    "lnIntrest": "Operated",
    "symbol": "DLP",
    "links": [
      {
        "text": "",
        "href": "",
        "$$hashKey": "0G8"
      }
    ],
    "pictures": [
      "/Content/img/Map/Locations/amphitheaters/dlp.jpg"
    ],
    "url": "http://www.livenationvenue.com/darien-lake-performing-arts-center",
    "address": "9993 Alleghany Rd Darien Center NY 14040, USA",
    "phone": "+1 585-599-5040",
    "$$hashKey": "01E"
  },
  "184": {
    "position": {
      "lat": 26.686,
      "lng": -80.18671999999998
    },
    "title": "Coral Sky Amphitheater",
    "city": "West Palm Beach",
    "country": "",
    "region": "Florida",
    "type": "venue",
    "market": "West Palm Beach",
    "category": "Amphitheaters",
    "capacity": 19300,
    "lnIntrest": "Operated",
    "symbol": "CSA",
    "links": [
      {
        "text": "",
        "href": "",
        "$$hashKey": "0G5"
      }
    ],
    "pictures": [
      "/Content/img/Map/Locations/amphitheaters/cza.jpg"
    ],
    "url": "http://www.livenation.com/#/venues/14475/cruzan-amphitheatre",
    "address": "601 Sansburys Way, West Palm Beach, FL 33411, USA",
    "phone": "+1 561-795-8883",
    "$$hashKey": "01C"
  },
  "185": {
    "position": {
      "lat": 41.78037,
      "lng": -72.66933440000003
    },
    "title": "Xfinity Theater",
    "city": "Hartford ",
    "country": "",
    "region": "Connecticut",
    "type": "venue",
    "market": "Hartford",
    "category": "Amphitheaters",
    "capacity": 24200,
    "lnIntrest": "Operated",
    "symbol": "XFT",
    "links": [
      {
        "text": "",
        "href": "",
        "$$hashKey": "0G2"
      }
    ],
    "pictures": [
      "/Content/img/Map/Locations/amphitheaters/cct.jpg"
    ],
    "url": "http://www.livenation.com/venues/14505/xfinity-theatre",
    "address": "61 Savitt Way, Hartford, CT 06120, USA",
    "phone": "+1 860-548-7370",
    "$$hashKey": "01A"
  },
  "186": {
    "position": {
      "lat": 41.9927826,
      "lng": -71.22036000000003
    },
    "title": "Xfinity Center",
    "city": "Mansfield",
    "country": "",
    "region": "Massachusetts",
    "type": "venue",
    "market": "Boston",
    "category": "Amphitheaters",
    "capacity": 19900,
    "lnIntrest": "Owned",
    "symbol": "XFC",
    "links": [
      {
        "text": "",
        "href": "",
        "$$hashKey": "0FZ"
      }
    ],
    "pictures": [
      "/Content/img/Map/Locations/amphitheaters/ccc.jpg"
    ],
    "url": "http://www.livenation.com/venues/14505/xfinity-theatre",
    "address": "885 South Main Street, Mansfield, MA 02048, USA",
    "phone": "+1 508-339-2331",
    "$$hashKey": "018"
  },
  "187": {
    "position": {
      "lat": 33.877243,
      "lng": -84.39699999999999
    },
    "title": "Chastain Park Amphitheatre",
    "city": "Atlanta",
    "country": "",
    "region": "Georgia",
    "type": "venue",
    "market": "Atlanta",
    "category": "Amphitheaters",
    "capacity": 6400,
    "lnIntrest": "Operated",
    "symbol": "CPA",
    "links": [
      {
        "text": "",
        "href": "",
        "$$hashKey": "0FW"
      }
    ],
    "pictures": [
      "/Content/img/Map/Locations/amphitheaters/cpa.jpg"
    ],
    "url": "http://www.chastainseries.com",
    "address": "4469 Stella Drive, Atlanta, Ga. 30327",
    "phone": "+1 404-233-2227",
    "$$hashKey": "016"
  },
  "188": {
    "position": {
      "lat": 41.1914444,
      "lng": -81.56078000000002
    },
    "title": "Blossom Music Center",
    "city": "Cuyahoga Falls",
    "country": "",
    "region": "Ohio",
    "type": "venue",
    "market": "Cleveland",
    "category": "Amphitheaters",
    "capacity": 19600,
    "lnIntrest": "Operated",
    "symbol": "BMC",
    "links": [
      {
        "text": "",
        "href": "",
        "$$hashKey": "0FT"
      }
    ],
    "pictures": [
      "/Content/img/Map/Locations/amphitheaters/bmc.jpg"
    ],
    "url": "http://www.blossommusic.com",
    "address": "Cuyahoga Valley National Park, 1145 West Steels Corners Road, Cuyahoga Falls, OH 44223, USA",
    "phone": "+1 330-920-8040",
    "$$hashKey": "014"
  },
  "189": {
    "position": {
      "lat": 42.3488,
      "lng": -71.03584999999998
    },
    "title": "Blue Hills Bank Pavilion",
    "city": "Boston",
    "country": "",
    "region": "Massachusetts",
    "type": "venue",
    "market": "Boston",
    "category": "Amphitheaters",
    "capacity": 4900,
    "lnIntrest": "Operated",
    "symbol": "BHB",
    "links": [
      {
        "text": "",
        "href": "",
        "$$hashKey": "0FQ"
      }
    ],
    "pictures": [
      "/Content/img/Map/Locations/amphitheaters/boa.jpg"
    ],
    "url": "http://www.livenation.com/venues/14347/blue-hills-bank-pavilion",
    "address": "290 Northern Avenue, Boston, MA 02210, USA",
    "phone": "+1 617-728-1600",
    "$$hashKey": "012"
  },
  "190": {
    "position": {
      "lat": 42.7393227,
      "lng": -88.43462
    },
    "title": "Alpine Valley Music Theatre",
    "city": "Elkhorn",
    "country": "",
    "region": "Wisconsin",
    "type": "venue",
    "market": "Milwaukee",
    "category": "Amphitheaters",
    "capacity": 35300,
    "lnIntrest": "Operated",
    "symbol": "AVT",
    "links": [
      {
        "text": "",
        "href": "",
        "$$hashKey": "0FN"
      }
    ],
    "pictures": [
      "/Content/img/Map/Locations/amphitheaters/avt.jpg"
    ],
    "url": "http://www.livenation.com/#/venues/14585/alpine-valley-music-theatre",
    "address": "W2699 Co Highway D, Elkhorn, WI 53121, USA",
    "phone": "+1 262-642-4400",
    "$$hashKey": "010"
  },
  "191": {
    "position": {
      "lat": 33.4715042,
      "lng": -112.23289999999997
    },
    "title": "Ak-Chin Pavilion",
    "city": "Phoenix",
    "country": "",
    "region": "Arizona",
    "type": "venue",
    "market": "Phoenix",
    "category": "Amphitheaters",
    "capacity": 20000,
    "lnIntrest": "Operated",
    "symbol": "AKP",
    "links": [
      {
        "text": "",
        "href": "",
        "$$hashKey": "0FK"
      }
    ],
    "pictures": [
      "/Content/img/Map/Locations/amphitheaters/akp.jpg"
    ],
    "url": "http://www.livenation.com/venues/14282/ak-chin-pavilion",
    "address": "2121 North 83rd Avenue, Phoenix, AZ 85035, USA",
    "phone": "+1 602-254-7200",
    "$$hashKey": "00Y"
  },
  "192": {
    "position": {
      "lat": 33.70108,
      "lng": -84.38893000000002
    },
    "title": "Aaron's Amphitheatre at Lakewood",
    "city": "Atlanta",
    "country": "",
    "region": "Georgia",
    "type": "venue",
    "market": "Atlanta",
    "category": "Amphitheaters",
    "capacity": 19000,
    "lnIntrest": "Operated",
    "symbol": "AAL",
    "links": [
      {
        "text": "",
        "href": "",
        "$$hashKey": "0FH"
      }
    ],
    "pictures": [
      "/Content/img/Map/Locations/amphitheaters/aal.jpg"
    ],
    "url": "http://www.livenation.com/venues/14086/aaron-s-amphitheatre-at-lakewood",
    "address": "2000 Lakewood Avenue Southeast, Atlanta, GA 30315, USA",
    "phone": " +1 404-443-5090",
    "$$hashKey": "00W"
  },
  "193": {
    "position": {
      "lat": 22.3983326,
      "lng": 114.14852900000005
    },
    "title": "HK",
    "city": "",
    "country": "Hong Kong",
    "region": "Hong Kong",
    "type": "office",
    "market": "",
    "category": "Asia",
    "capacity": "",
    "lnIntrest": "",
    "symbol": "HK",
    "links": [
      {
        "text": "livenation.asia/",
        "href": "http://www.livenation.asia/",
        "$$hashKey": "0FE"
      }
    ],
    "pictures": [
      "/Content/img/Map/Locations/office/hkong.jpg"
    ]
  },
  "194": {
    "position": {
      "lat": 48.2,
      "lng": 16.350000000000023
    },
    "title": "AT",
    "city": "",
    "country": "Austria",
    "region": "Austria",
    "type": "office",
    "market": "",
    "category": "Europe",
    "capacity": "",
    "lnIntrest": "",
    "symbol": "AT",
    "links": [
      {
        "text": "ticketmaster.at/",
        "href": "http://www.ticketmaster.at/",
        "$$hashKey": "0FB"
      }
    ],
    "pictures": [
      "/Content/img/Map/Locations/office/austria.jpg"
    ]
  },
  "195": {
    "position": {
      "lat": 55.75,
      "lng": 37.61666700000001
    },
    "title": "RU",
    "city": "",
    "country": "Russia",
    "region": "Russia",
    "type": "office",
    "market": "",
    "category": "Europe",
    "capacity": "",
    "lnIntrest": "",
    "symbol": "RU",
    "links": [],
    "pictures": []
  },
  "196": {
    "position": {
      "lat": 1.364236,
      "lng": 103.79803500000003
    },
    "title": "SG",
    "city": "",
    "country": "Singapore",
    "region": "Singapore",
    "type": "office",
    "market": "",
    "category": "Asia",
    "capacity": "",
    "lnIntrest": "",
    "symbol": "SG",
    "links": [
      {
        "text": "livenation.asia/",
        "href": "http://www.livenation.asia/",
        "$$hashKey": "0F7"
      }
    ],
    "pictures": [
      "/Content/img/Map/Locations/office/singapore.jpg"
    ]
  },
  "197": {
    "position": {
      "lat": 13.75,
      "lng": 100.48333300000002
    },
    "title": "TH",
    "city": "",
    "country": "Thailand",
    "region": "Thailand",
    "type": "office",
    "market": "",
    "category": "Asia",
    "capacity": "",
    "lnIntrest": "",
    "symbol": "TH",
    "links": [
      {
        "text": "livenation.asia/",
        "href": "http://www.livenation.asia/",
        "$$hashKey": "0F4"
      }
    ],
    "pictures": []
  },
  "198": {
    "position": {
      "lat": 25.033333,
      "lng": 121.633333
    },
    "title": "TW",
    "city": "",
    "country": "Taiwan",
    "region": "Taiwan",
    "type": "office",
    "market": "",
    "category": "Asia",
    "capacity": "",
    "lnIntrest": "",
    "symbol": "TW",
    "links": [
      {
        "text": "livenation.asia/",
        "href": "http://www.livenation.asia/",
        "$$hashKey": "0F1"
      }
    ],
    "pictures": [
      "/Content/img/Map/Locations/office/taipei.jpg"
    ]
  },
  "199": {
    "position": {
      "lat": 36.540535,
      "lng": 127.82506599999999
    },
    "title": "KR",
    "city": "",
    "country": "S. Korea",
    "region": "Korea",
    "type": "office",
    "market": "",
    "category": "Asia",
    "capacity": "",
    "lnIntrest": "",
    "symbol": "KR",
    "links": [
      {
        "text": "livenation.kr/",
        "href": "http://www.livenation.kr/",
        "$$hashKey": "0EY"
      }
    ],
    "pictures": [
      "/Content/img/Map/Locations/office/Korea.jpg"
    ]
  },
  "200": {
    "position": {
      "lat": 36.2048225,
      "lng": 138.25293
    },
    "title": "JP",
    "city": "",
    "country": "Japan",
    "region": "Japan",
    "type": "office",
    "market": "",
    "category": "Asia",
    "capacity": "",
    "lnIntrest": "",
    "symbol": "JP",
    "links": [
      {
        "text": "livenation.co.jp/",
        "href": "http://www.livenation.co.jp/",
        "$$hashKey": "0EV"
      }
    ],
    "pictures": [
      "/Content/img/Map/Locations/office/japan.jpg"
    ]
  },
  "201": {
    "position": {
      "lat": -25.1651726,
      "lng": 133.681641
    },
    "title": "AU",
    "city": "",
    "country": "Australia",
    "region": "Australia",
    "type": "office",
    "market": "",
    "category": "South Pacific",
    "capacity": "",
    "lnIntrest": "",
    "symbol": "AU",
    "links": [
      {
        "text": "livenation.com.au/",
        "href": "http://www.livenation.com.au/",
        "$$hashKey": "0EO"
      },
      {
        "text": "ticketmaster.com.au/",
        "href": "http://www.ticketmaster.com.au/",
        "$$hashKey": "0EQ"
      },
      {
        "text": "ticketmaster.co.nz/",
        "href": "http://www.ticketmaster.co.nz/",
        "$$hashKey": "0ES"
      }
    ],
    "pictures": [
      "/Content/img/Map/Locations/office/sydney.jpg"
    ]
  },
  "202": {
    "position": {
      "lat": 40.4469452,
      "lng": -101.601563
    },
    "title": "US",
    "city": "",
    "country": "United States",
    "region": "United States",
    "type": "office",
    "market": "",
    "category": "North America",
    "capacity": "",
    "lnIntrest": "",
    "symbol": "US",
    "links": [
      {
        "text": "livenation.com/",
        "href": "http://www.livenation.com/",
        "$$hashKey": "0EH"
      },
      {
        "text": "ticketmaster.com/",
        "href": "http://www.ticketmaster.com/",
        "$$hashKey": "0EJ"
      },
      {
        "text": "ticketweb.com/",
        "href": "http://www.ticketweb.com/",
        "$$hashKey": "0EL"
      }
    ],
    "pictures": [
      "/Content/img/Map/Locations/office/beverly-hills.jpg"
    ]
  },
  "203": {
    "position": {
      "lat": 55.37805,
      "lng": -3.43597299999999
    },
    "title": "UK",
    "city": "",
    "country": "United Kingdom",
    "region": "United Kingdom",
    "type": "office",
    "market": "",
    "category": "Europe",
    "capacity": "",
    "lnIntrest": "",
    "symbol": "UK",
    "links": [
      {
        "text": "livenation.co.uk/",
        "href": "http://www.livenation.co.uk/",
        "$$hashKey": "0E8"
      },
      {
        "text": "ticketmaster.co.uk/",
        "href": "http://www.ticketmaster.co.uk/",
        "$$hashKey": "0EA"
      },
      {
        "text": "getmein.com/",
        "href": "http://www.getmein.com/",
        "$$hashKey": "0EC"
      },
      {
        "text": "ticketweb.co.uk/",
        "href": "http://www.ticketweb.co.uk/",
        "$$hashKey": "0EE"
      },
      {
        "text": "itb.co.uk/",
        "href": "http://www.itb.co.uk/"
      }
    ],
    "pictures": [
      "/Content/img/Map/Locations/office/london.jpg"
    ]
  },
  "204": {
    "position": {
      "lat": 25.3,
      "lng": 51.516666999999984
    },
    "title": "QA",
    "city": "",
    "country": "Qatar",
    "region": "Qatar",
    "type": "office",
    "market": "",
    "category": "Asia",
    "capacity": "",
    "lnIntrest": "",
    "symbol": "QA",
    "links": [
      {
        "text": "livenation.ae/",
        "href": "http://www.livenation.ae/",
        "$$hashKey": "0E3"
      },
      {
        "text": "ticketmaster.ae",
        "href": "http://www.ticketmaster.ae",
        "$$hashKey": "0E5"
      }
    ],
    "pictures": [
      "/Content/img/Map/Locations/office/dubai.jpg"
    ]
  },
  "205": {
    "position": {
      "lat": 25.27114,
      "lng": 55.307483700000034
    },
    "title": "AE",
    "city": "",
    "country": "United Arab Emirates",
    "region": "United Arab Emirates",
    "type": "office",
    "market": "",
    "category": "Asia",
    "capacity": "",
    "lnIntrest": "",
    "symbol": "AE",
    "links": [
      {
        "text": "livenation.ae/",
        "href": "http://www.livenation.ae/",
        "$$hashKey": "0DY"
      },
      {
        "text": "ticketmaster.ae",
        "href": "http://www.ticketmaster.ae",
        "$$hashKey": "0E0"
      }
    ],
    "pictures": [
      "/Content/img/Map/Locations/office/dubai.jpg"
    ]
  },
  "206": {
    "position": {
      "lat": 39.232254,
      "lng": 35.41992000000005
    },
    "title": "TR",
    "city": "",
    "country": "Turkey",
    "region": "Turkey",
    "type": "office",
    "market": "",
    "category": "Europe",
    "capacity": "",
    "lnIntrest": "",
    "symbol": "TR",
    "links": [
      {
        "text": "biletix.com/",
        "href": "http://www.biletix.com/",
        "$$hashKey": "0DV"
      }
    ],
    "pictures": [
      "/Content/img/Map/Locations/office/istanbul.jpg"
    ]
  },
  "207": {
    "position": {
      "lat": 62.8952179,
      "lng": 16.435546899999963
    },
    "title": "SE",
    "city": "",
    "country": "Sweden",
    "region": "Sweden",
    "type": "office",
    "market": "",
    "category": "Europe",
    "capacity": "",
    "lnIntrest": "",
    "symbol": "SE",
    "links": [
      {
        "text": "livenation.se/",
        "href": "http://www.livenation.se/",
        "$$hashKey": "0DQ"
      },
      {
        "text": "ticketmaster.se/",
        "href": "http://www.ticketmaster.se/",
        "$$hashKey": "0DS"
      }
    ],
    "pictures": [
      "/Content/img/Map/Locations/office/stockholm.jpg"
    ]
  },
  "208": {
    "position": {
      "lat": 39.4870834,
      "lng": -3.3178709999999683
    },
    "title": "ES",
    "city": "",
    "country": "Spain",
    "region": "Spain",
    "type": "office",
    "market": "",
    "category": "Europe",
    "capacity": "",
    "lnIntrest": "",
    "symbol": "ES",
    "links": [
      {
        "text": "livenation.es/",
        "href": "http://www.livenation.es/",
        "$$hashKey": "0DL"
      },
      {
        "text": "ticketmaster.es/",
        "href": "http://www.ticketmaster.es/",
        "$$hashKey": "0DN"
      }
    ],
    "pictures": [
      "/Content/img/Map/Locations/office/barcelona.jpg"
    ]
  },
  "209": {
    "position": {
      "lat": 51.99841,
      "lng": 18.984375
    },
    "title": "PL",
    "city": "",
    "country": "Poland",
    "region": "Poland",
    "type": "office",
    "market": "",
    "category": "Europe",
    "capacity": "",
    "lnIntrest": "",
    "symbol": "PL",
    "links": [
      {
        "text": "livenation.pl/",
        "href": "http://www.livenation.pl/",
        "$$hashKey": "0DG"
      },
      {
        "text": "ticketmaster.pl/",
        "href": "http://www.ticketmaster.pl/",
        "$$hashKey": "0DI"
      }
    ],
    "pictures": [
      "/Content/img/Map/Locations/office/warsaw.jpg"
    ]
  },
  "210": {
    "position": {
      "lat": 61.6898727,
      "lng": 9.404297000000042
    },
    "title": "NO",
    "city": "",
    "country": "Norway",
    "region": "Norway",
    "type": "office",
    "market": "",
    "category": "Europe",
    "capacity": "",
    "lnIntrest": "",
    "symbol": "NO",
    "links": [
      {
        "text": "livenation.no/",
        "href": "http://www.livenation.no/",
        "$$hashKey": "0DB"
      },
      {
        "text": "ticketmaster.no/",
        "href": "http://www.ticketmaster.no/",
        "$$hashKey": "0DD"
      }
    ],
    "pictures": [
      "/Content/img/Map/Locations/office/oslo.jpg"
    ]
  },
  "211": {
    "position": {
      "lat": -42.4558868,
      "lng": 172.39746100000002
    },
    "title": "NZ",
    "city": "",
    "country": "New Zealand",
    "region": "New Zealand",
    "type": "office",
    "market": "",
    "category": "South Pacific",
    "capacity": "",
    "lnIntrest": "",
    "symbol": "NZ",
    "links": [
      {
        "text": "livenation.com.au/",
        "href": "http://www.livenation.com.au/",
        "$$hashKey": "0D4"
      },
      {
        "text": "ticketmaster.com.au/",
        "href": "http://www.ticketmaster.com.au/",
        "$$hashKey": "0D6"
      },
      {
        "text": "ticketmaster.co.nz/",
        "href": "http://www.ticketmaster.co.nz/",
        "$$hashKey": "0D8"
      }
    ],
    "pictures": [
      "/Content/img/Map/Locations/office/auckland.jpg"
    ]
  },
  "212": {
    "position": {
      "lat": 52.1326332,
      "lng": 5.2912659999999505
    },
    "title": "NL",
    "city": "",
    "country": "Netherlands",
    "region": "Netherlands",
    "type": "office",
    "market": "",
    "category": "Europe",
    "capacity": "",
    "lnIntrest": "",
    "symbol": "NL",
    "links": [
      {
        "text": "livenation.nl/",
        "href": "http://www.livenation.nl/",
        "$$hashKey": "0CZ"
      },
      {
        "text": "ticketmaster.nl/",
        "href": "http://www.ticketmaster.nl/",
        "$$hashKey": "0D1"
      }
    ],
    "pictures": [
      "/Content/img/Map/Locations/office/the-hague.jpg"
    ]
  },
  "213": {
    "position": {
      "lat": 23.6345,
      "lng": -102.55278800000002
    },
    "title": "MX",
    "city": "",
    "country": "Mexico",
    "region": "Mexico",
    "type": "office",
    "market": "",
    "category": "North America",
    "capacity": "",
    "lnIntrest": "",
    "symbol": "MX",
    "links": [
      {
        "text": "ticketmaster.com.mx/",
        "href": "http://www.ticketmaster.com.mx/",
        "$$hashKey": "0CW"
      }
    ],
    "pictures": [
      "/Content/img/Map/Locations/office/mexico-city.jpg"
    ]
  },
  "214": {
    "position": {
      "lat": 42.9564247,
      "lng": 12.436523399999942
    },
    "title": "IT",
    "city": "",
    "country": "Italy",
    "region": "Italy",
    "type": "office",
    "market": "",
    "category": "Europe",
    "capacity": "",
    "lnIntrest": "",
    "symbol": "IT",
    "links": [
      {
        "text": "livenation.it/",
        "href": "http://www.livenation.it/",
        "$$hashKey": "0CT"
      }
    ],
    "pictures": [
      "/Content/img/Map/Locations/office/milan.jpg"
    ]
  },
  "215": {
    "position": {
      "lat": 53.1204033,
      "lng": -8.173827999999958
    },
    "title": "IE",
    "city": "",
    "country": "Ireland",
    "region": "Ireland",
    "type": "office",
    "market": "",
    "category": "Europe",
    "capacity": "",
    "lnIntrest": "",
    "symbol": "IE",
    "links": [
      {
        "text": "ticketmaster.ie/",
        "href": "http://www.ticketmaster.ie/",
        "$$hashKey": "0CQ"
      }
    ],
    "pictures": [
      "/Content/img/Map/Locations/office/dublin.jpg"
    ]
  },
  "216": {
    "position": {
      "lat": -6.175,
      "lng": 106.82833299999993
    },
    "title": "ID",
    "city": "",
    "country": "Indonesia",
    "region": "Indonesia",
    "type": "office",
    "market": "",
    "category": "ASIA",
    "capacity": "",
    "lnIntrest": "",
    "symbol": "ID",
    "links": [
      {
        "text": "livenation.asia/",
        "href": "http://www.livenation.asia/",
        "$$hashKey": "0CN"
      }
    ],
    "pictures": []
  },
  "217": {
    "position": {
      "lat": 47.1624947,
      "lng": 19.503303500000015
    },
    "title": "HU",
    "city": "",
    "country": "Hungary",
    "region": "Hungary",
    "type": "office",
    "market": "",
    "category": "Europe",
    "capacity": "",
    "lnIntrest": "",
    "symbol": "HU",
    "links": [
      {
        "text": "livenation.hu/",
        "href": "http://www.livenation.hu/",
        "$$hashKey": "0CK"
      }
    ],
    "pictures": [
      "/Content/img/Map/Locations/office/budapest.jpg"
    ]
  },
  "218": {
    "position": {
      "lat": 51.16569,
      "lng": 10.451525700000047
    },
    "title": "DE",
    "city": "",
    "country": "Germany",
    "region": "Germany",
    "type": "office",
    "market": "",
    "category": "Europe",
    "capacity": "",
    "lnIntrest": "",
    "symbol": "DE",
    "links": [
      {
        "text": "livenation.de/",
        "href": "http://www.livenation.de/",
        "$$hashKey": "0CF"
      },
      {
        "text": "ticketmaster.de/",
        "href": "http://www.ticketmaster.de/",
        "$$hashKey": "0CH"
      }
    ],
    "pictures": [
      "/Content/img/Map/Locations/office/berlin.jpg"
    ]
  },
  "219": {
    "position": {
      "lat": 61.92411,
      "lng": 25.74815179999996
    },
    "title": "FI",
    "city": "",
    "country": "Finland",
    "region": "Finland",
    "type": "office",
    "market": "",
    "category": "Europe",
    "capacity": "",
    "lnIntrest": "",
    "symbol": "FI",
    "links": [
      {
        "text": "livenation.fi/",
        "href": "http://www.livenation.fi/",
        "$$hashKey": "0CB"
      },
      {
        "text": "ticketmaster.fi/",
        "href": "http://www.ticketmaster.fi/",
        "$$hashKey": "0CD"
      }
    ],
    "pictures": [
      "/Content/img/Map/Locations/office/helsinki.jpg"
    ]
  },
  "220": {
    "position": {
      "lat": 56.26392,
      "lng": 9.50178500000004
    },
    "title": "DK",
    "city": "",
    "country": "Denmark",
    "region": "Denmark",
    "type": "office",
    "market": "",
    "category": "Europe",
    "capacity": "",
    "lnIntrest": "",
    "symbol": "DK",
    "links": [
      {
        "text": "livenation.dk/",
        "href": "http://www.livenation.dk/",
        "$$hashKey": "0C7"
      },
      {
        "text": "ticketmaster.dk/",
        "href": "http://www.ticketmaster.dk",
        "$$hashKey": "0C9"
      }
    ],
    "pictures": [
      "/Content/img/Map/Locations/office/copenhagen.jpg"
    ]
  },
  "221": {
    "position": {
      "lat": 49.8174934,
      "lng": 15.472962400000029
    },
    "title": "CZ",
    "city": "",
    "country": "Czech Rep.",
    "region": "Czech Republic",
    "type": "office",
    "market": "",
    "category": "Europe",
    "capacity": "",
    "lnIntrest": "",
    "symbol": "CZ",
    "links": [
      {
        "text": "livenation.cz/",
        "href": "http://www.livenation.cz/",
        "$$hashKey": "0C5"
      }
    ],
    "pictures": [
      "/Content/img/Map/Locations/office/prague.jpg"
    ]
  },
  "222": {
    "position": {
      "lat": 46.22764,
      "lng": 2.213749000000007
    },
    "title": "FR",
    "city": "",
    "country": "France",
    "region": "France",
    "type": "office",
    "market": "",
    "category": "Europe",
    "capacity": "",
    "lnIntrest": "",
    "symbol": "FR",
    "links": [
      {
        "text": "livenation.fr/",
        "href": "http://www.livenation.fr/",
        "$$hashKey": "0C1"
      },
      {
        "text": "ticketmaster.fr/",
        "href": "http://www.ticketmaster.fr/",
        "$$hashKey": "0C3"
      }
    ],
    "pictures": [
      "/Content/img/Map/Locations/office/paris.jpg"
    ]
  },
  "223": {
    "position": {
      "lat": 35.86166,
      "lng": 104.19540000000006
    },
    "title": "CN",
    "city": "",
    "country": "China",
    "region": "China",
    "type": "office",
    "market": "",
    "category": "Asia",
    "capacity": "",
    "lnIntrest": "",
    "symbol": "CN",
    "links": [
      {
        "text": "livenation.asia/",
        "href": "http://www.livenation.asia/",
        "$$hashKey": "0BZ"
      }
    ],
    "pictures": [
      "/Content/img/Map/Locations/office/shanghai.jpg"
    ]
  },
  "224": {
    "position": {
      "lat": 56.1303673,
      "lng": -106.34677099999999
    },
    "title": "CA",
    "city": "",
    "country": "Canada",
    "region": "Canada",
    "type": "office",
    "market": "",
    "category": "North America",
    "capacity": "",
    "lnIntrest": "",
    "symbol": "CA",
    "links": [
      {
        "text": "ticketmaster.ca/",
        "href": "http://www.ticketmaster.ca/",
        "$$hashKey": "0BT"
      },
      {
        "text": "ticketweb.ca/",
        "href": "http://www.ticketweb.ca/",
        "$$hashKey": "0BV"
      },
      {
        "text": "admission.com/",
        "href": "http://www.admission.com/",
        "$$hashKey": "0BX"
      }
    ],
    "pictures": [
      "/Content/img/Map/Locations/office/toronto.jpg"
    ]
  },
  "225": {
    "position": {
      "lat": 50.572773,
      "lng": 4.66918899999996
    },
    "title": "BE",
    "city": "",
    "country": "Belgium",
    "region": "Belgium",
    "type": "office",
    "market": "",
    "category": "Europe",
    "capacity": "",
    "lnIntrest": "",
    "symbol": "BE",
    "links": [
      {
        "text": "livenation.be/",
        "href": "http://www.livenation.be/",
        "$$hashKey": "0BP"
      },
      {
        "text": "ticketmaster.be/",
        "href": "http://www.ticketmaster.be/",
        "$$hashKey": "0BR"
      }
    ],
    "pictures": [
      "/Content/img/Map/Locations/office/brussels.jpg"
    ]
  }
}
